SALE TYPE,SOLD DATE,PROPERTY TYPE,ADDRESS,CITY,STATE OR PROVINCE,ZIP OR POSTAL CODE,PRICE,BEDS,BATHS,LOCATION,SQUARE FEET,LOT SIZE,YEAR BUILT,DAYS ON MARKET,$/SQUARE FEET,HOA/MONTH,STATUS,NEXT OPEN HOUSE START TIME,NEXT OPEN HOUSE END TIME,URL (SEE https://www.redfin.com/buy-a-home/comparative-market-analysis FOR INFO ON PRICING),SOURCE,MLS#,FAVORITE,INTERESTED,LATITUDE,LONGITUDE
"In accordance with local MLS rules, some MLS listings are not included in the download"
PAST SALE,December-16-2024,Single Family Residential,19942 Cochera Via,Dulzura,CA,91917,580000,4,3.0,Dulzura,1482,29620,1969,,391,,Sold,,,https://www.redfin.com/CA/Dulzura/19942-Cochera-Via-91917/home/6223181,SDMLS,240023463,N,Y,32.613152,-116.7199675
PAST SALE,December-27-2024,Single Family Residential,17066 HIGHWAY 94,Dulzura,CA,91917,730000,3,2.0,Dulzura,1974,113256,1970,,370,,Sold,,,https://www.redfin.com/CA/Dulzura/17066-California-94-91917/home/191896799,SDMLS,240018039,N,Y,32.6436881,-116.7789036
PAST SALE,February-14-2025,Vacant Land,Bee Canyon Rd,Jamul,CA,91935,225000,0,,Dulzura,,693039,,,,,Sold,,,https://www.redfin.com/CA/Jamul/Bee-Canyon-Rd-91935/home/6222974,SDMLS,240026147,N,Y,32.606758,-116.755495
PAST SALE,December-12-2024,Vacant Land,0 Highway 94,Jamul,CA,91935,390000,,,91935 - Jamul,,1605621,,,,,Sold,,,https://www.redfin.com/CA/Jamul/Campo-Rd-91935/home/148684787,CRMLS,PTP2404815,N,Y,32.614899,-116.739325
PAST SALE,,Single Family Residential,532 Tecate Rd,Tecate,CA,91980,107500,2,1.0,,816,217800,1954,,132,,,,,https://www.redfin.com/CA/Tecate/532-Tecate-Rd-91980/home/6223394,,,N,Y,32.5837399,-116.636891
