SALE TYPE,SOLD DATE,PROPERTY TYPE,ADDRESS,CITY,STATE OR PROVINCE,ZIP OR POSTAL CODE,PRICE,BEDS,BATHS,LOCATION,SQUARE FEET,LOT SIZE,YEAR BUILT,DAYS ON MARKET,$/SQUARE FEET,HOA/MONTH,STATUS,NEXT OPEN HOUSE START TIME,NEXT OPEN HOUSE END TIME,URL (SEE https://www.redfin.com/buy-a-home/comparative-market-analysis FOR INFO ON PRICING),SOURCE,MLS#,FAVORITE,INTERESTED,LATITUDE,LONGITUDE
"In accordance with local MLS rules, some MLS listings are not included in the download"
PAST SALE,February-26-2025,Single Family Residential,232 E 16Th St,National City,CA,91950,780000,3,2.0,National City,1235,5605,2017,,632,,Sold,,,https://www.redfin.com/CA/National-City/232-E-16th-St-91950/home/5925310,SDMLS,250001502,N,Y,32.6694687,-117.1014111
PAST SALE,December-18-2024,Single Family Residential,617 E 24th St,National City,CA,91950,350000,3,2.0,National City,1216,3484,1952,,288,,Sold,,,https://www.redfin.com/CA/National-City/617-E-24th-St-91950/home/5926448,CRMLS,SW24238554,N,Y,32.6641477,-117.0951039
PAST SALE,,Multi-Family (2-4 Unit),1126 E 7th St,National City,CA,91950,700000,10,5.0,,3560,11343,1958,,197,,,,,https://www.redfin.com/CA/National-City/1126-E-7th-St-91950/home/5916099,,,N,Y,32.6798071,-117.0953799
PAST SALE,,Single Family Residential,3030 Shelby Dr,National City,CA,91950,230000,2,1.0,,992,11761,1952,,232,,,,,https://www.redfin.com/CA/National-City/3030-Shelby-Dr-91950/home/6439472,,,N,Y,32.663004,-117.0768564
PAST SALE,February-3-2025,Single Family Residential,2840 M Ave,National City,CA,91950,825000,3,1.5,National City,1621,12100,1936,,509,,Sold,,,https://www.redfin.com/CA/National-City/2840-M-Ave-91950/home/5933436,SDMLS,250000264,N,Y,32.6616254,-117.086939
PAST SALE,February-18-2025,Single Family Residential,1821 Beta St,National City,CA,91950,725000,3,1.0,National City,1064,7200,1955,,681,,Sold,,,https://www.redfin.com/CA/National-City/1821-Beta-St-91950/home/5903226,SDMLS,250017154,N,Y,32.6911189,-117.0901994
PAST SALE,December-30-2024,Single Family Residential,1733 Delta St,National City,CA,91950,758000,4,2.0,National City,1614,,1956,,470,,Sold,,,https://www.redfin.com/CA/National-City/1733-Delta-St-91950/home/5904950,SDMLS,240028596,N,Y,32.6887188,-117.0912119
PAST SALE,March-4-2025,Single Family Residential,2022 S Lanoitan Ave,National City,CA,91950,585000,2,1.0,91950 - National City,796,6663,1947,,735,,Sold,,,https://www.redfin.com/CA/National-City/2022-S-Lanoitan-Ave-91950/home/5923374,CRMLS,PTP2500795,N,Y,32.6723404,-117.0764669
PAST SALE,February-19-2025,Multi-Family (2-4 Unit),2711-2717 Ridgeway Dr,National City,CA,91950,790000,5,3.0,National City,1890,18021,1945,,418,,Sold,,,https://www.redfin.com/CA/National-City/2711-Ridgeway-Dr-91950/home/194158221,SDMLS,250000675,N,Y,32.6683502,-117.0736735
PAST SALE,February-20-2025,Single Family Residential,2105 E 4Th St,National City,CA,91950,705000,3,2.0,91950 - National City,1088,5800,1960,,648,,Sold,,,https://www.redfin.com/CA/National-City/2105-E-4th-St-91950/home/5910117,CRMLS,PTP2500809,N,Y,32.6856261,-117.0866358
PAST SALE,February-5-2025,Single Family Residential,2718 E 16th St,National City,CA,91950,690000,2,2.0,National City,960,19602,1948,,719,,Sold,,,https://www.redfin.com/CA/National-City/2718-E-16th-St-91950/home/6439119,CRMLS,IV25003551,N,Y,32.6765838,-117.076097
PAST SALE,February-7-2025,Single Family Residential,1425 Coolidge Ave,National City,CA,91950,610000,4,3.0,National City,1200,,1960,,508,,Sold,,,https://www.redfin.com/CA/National-City/1425-Coolidge-Ave-91950/home/5924871,SDMLS,240026626,N,Y,32.6693962,-117.1076195
PAST SALE,January-7-2025,Single Family Residential,102 N T Ave,National City,CA,91950,715000,3,2.0,National City,960,,1952,,745,,Sold,,,https://www.redfin.com/CA/National-City/102-N-T-Ave-91950/home/5905035,SDMLS,240025065,N,Y,32.6896239,-117.0892144
PAST SALE,January-21-2025,Single Family Residential,1042 E 2nd St,National City,CA,91950,531750,2,1.0,91950 - National City,848,6296,1928,,627,,Sold,,,https://www.redfin.com/CA/National-City/1042-E-2nd-St-91950/home/5913823,CRMLS,PTP2500070,N,Y,32.6838934,-117.0976621
PAST SALE,December-17-2024,Multi-Family (2-4 Unit),2115-2117 E 5th St,National City,CA,91950,750000,5,2.5,National City,2644,6899,1950,,284,,Sold,,,https://www.redfin.com/CA/National-City/2115-E-5th-St-91950/home/5917759,SDMLS,240027361,N,Y,32.6848135,-117.086148
PAST SALE,February-18-2025,Single Family Residential,3632 Newberry St,National City,CA,91950,867000,5,3.0,National City,1848,,1972,,469,,Sold,,,https://www.redfin.com/CA/National-City/3632-Newberry-St-91950/home/5938650,SDMLS,250016921,N,Y,32.6620246,-117.0598304
PAST SALE,February-5-2025,Condo/Co-op,312 J Ave #48,National City,CA,91950,315000,1,1.0,National City,378,,1996,,833,200,Sold,,,https://www.redfin.com/CA/National-City/312-J-Ave-91950/unit-48/home/22822500,SDMLS,240028879,N,Y,32.6829498,-117.0985022
PAST SALE,December-10-2024,Single Family Residential,1322 Roosevelt Ave,National City,CA,91950,505000,4,2.0,San Diego,1306,5155,2018,,387,,Sold,,,https://www.redfin.com/CA/National-City/1322-Roosevelt-Ave-91950/home/5924820,SDMLS,240024794,N,Y,32.6707969,-117.1064264
PAST SALE,March-5-2025,Single Family Residential,418 Honeysuckle Ln,National City,CA,91950,713500,3,2.0,National City,1290,,1960,,553,,Sold,,,https://www.redfin.com/CA/National-City/418-Honeysuckle-Ln-91950/home/6229392,SDMLS,250000063,N,Y,32.6904166,-117.0677567
PAST SALE,March-5-2025,Single Family Residential,132 Palm Ave,National City,CA,91950,560000,4,1.5,National City,1385,,1954,,404,,Sold,,,https://www.redfin.com/CA/National-City/132-Palm-Ave-91950/home/5908306,SDMLS,250001159,N,Y,32.6857979,-117.0929448
PAST SALE,February-25-2025,Single Family Residential,505 E 4th St,National City,CA,91950,840000,4,2.0,National City,1300,,1979,,646,,Sold,,,https://www.redfin.com/CA/National-City/505-E-4th-St-91950/home/5913530,SDMLS,250001042,N,Y,32.6810069,-117.1030376
PAST SALE,February-27-2025,Single Family Residential,3600 Paradise Valley Rd,National City,CA,91950,2925000,5,4.5,National City,5766,345866,1928,,507,,Sold,,,https://www.redfin.com/CA/National-City/3600-Paradise-Valley-Rd-91950/home/187661249,CRMLS,PT24253685,N,Y,32.687023,-117.068666
PAST SALE,February-26-2025,Condo/Co-op,2320 Euclid Ave #2,National City,CA,91950,505000,2,1.5,91950 - National City,1144,,1985,,441,240,Sold,,,https://www.redfin.com/CA/National-City/2320-Euclid-Ave-91950/unit-2/home/5930838,CRMLS,PTP2407081,N,Y,32.6693113,-117.0774981
PAST SALE,December-18-2024,Mobile/Manufactured Home,3131 Valley Rd #68,National City,CA,91950,240000,2,2.0,Bonita Paradise,1440,,1972,,167,,Sold,,,https://www.redfin.com/CA/National-City/3131-Valley-Rd-91950/unit-68/home/179359980,CRMLS,PTP2405148,N,Y,32.6628178,-117.0657779
PAST SALE,January-22-2025,Condo/Co-op,801 National City Blvd #506,National City,CA,91950,268000,1,1.0,91950 - National City,500,28894,1990,,536,403,Sold,,,https://www.redfin.com/CA/National-City/801-National-City-Blvd-91950/unit-506/home/17140617,CRMLS,PTP2406890,N,Y,32.6754021,-117.1064823
PAST SALE,December-11-2024,Condo/Co-op,905 E 4th St #8,National City,CA,91950,311500,1,1.0,91950 - National City,378,,1996,,824,200,Sold,,,https://www.redfin.com/CA/National-City/905-E-4th-St-91950/unit-8/home/6790143,CRMLS,NDP2406420,N,Y,32.6822717,-117.0986162
PAST SALE,February-7-2025,Single Family Residential,1603 Beta,National City,CA,91950,670000,4,2.0,National City,1359,,1952,,493,,Sold,,,https://www.redfin.com/CA/National-City/1603-Beta-St-91950/home/5904412,SDMLS,240027326,N,Y,32.6911819,-117.0935703
PAST SALE,March-5-2025,Condo/Co-op,801 National City Blvd #308,National City,CA,91950,339000,2,1.0,91950 - National City,700,,1990,,484,524,Sold,,,https://www.redfin.com/CA/National-City/801-National-City-Blvd-91950/unit-308/home/21881731,CRMLS,NDP2500323,N,Y,32.6754021,-117.1064823
PAST SALE,January-7-2025,Single Family Residential,2820 Lincoln Ct,National City,CA,91950,725000,3,2.0,National City,1408,14771,1959,,515,,Sold,,,https://www.redfin.com/CA/National-City/2820-Lincoln-Ct-91950/home/5933541,SDMLS,240024766,N,Y,32.6633505,-117.0839695
PAST SALE,January-30-2025,Multi-Family (2-4 Unit),"27,33-45 Osborn St",National City,CA,91950,937000,6,3.0,National City,,,1925,,,,Sold,,,https://www.redfin.com/CA/National-City/27-Osborn-St-91950/home/5911873,SDMLS,240023289,N,Y,32.682336,-117.1092056
PAST SALE,February-26-2025,Single Family Residential,3216 Alta Dr,National City,CA,91950,658000,2,1.0,91950 - National City,720,14759,1961,,914,,Sold,,,https://www.redfin.com/CA/National-City/3216-Alta-Dr-91950/home/5938519,CRMLS,PTP2407055,N,Y,32.6627725,-117.0699866
PAST SALE,January-15-2025,Single Family Residential,1628 C Ave,National City,CA,91950,479000,1,1.0,National City,432,1265,1945,,1109,,Sold,,,https://www.redfin.com/CA/National-City/1628-C-Ave-91950/home/5925376,SDMLS,240023367,N,Y,32.6691734,-117.1013159
PAST SALE,February-25-2025,Vacant Land,0 E 12Th St,National City,CA,91950,300000,,,91950 - National City,,6958,,,,,Sold,,,https://www.redfin.com/CA/National-City/0-E-12th-St-91950/home/193053891,CRMLS,PTP2406310,N,Y,32.672346,-117.1055057
PAST SALE,,Condo/Co-op,3303 Fairlomas Rd,National City,CA,91950,600000,4,3.0,,1584,,1973,,379,,,,,https://www.redfin.com/CA/National-City/3303-Fairlomas-Rd-91950/home/5938802,,,N,Y,32.6591347,-117.0612564
PAST SALE,,Vacant Land,12 E Th St,National City,CA,91950,300000,,,,,6969,,,,,,,,https://www.redfin.com/CA/National-City/12-E-Th-St-91950/home/22695884,,,N,Y,32.678728,-117.083856
PAST SALE,,Multi-Family (2-4 Unit),2960 Ridgeway Dr,National City,CA,91950,1750000,,,,,17859,2000,,,,,,,https://www.redfin.com/CA/National-City/2960-Ridgeway-Dr-91950/home/5936429,,,N,Y,32.6664299,-117.0680976
