SALE TYPE,SOLD DATE,PROPERTY TYPE,ADDRESS,CITY,STATE OR PROVINCE,ZIP OR POSTAL CODE,PRICE,BEDS,BATHS,LOCATION,SQUARE FEET,LOT SIZE,YEAR BUILT,DAYS ON MARKET,$/SQUARE FEET,HOA/MONTH,STATUS,NEXT OPEN HOUSE START TIME,NEXT OPEN HOUSE END TIME,URL (SEE https://www.redfin.com/buy-a-home/comparative-market-analysis FOR INFO ON PRICING),SOURCE,MLS#,FAVORITE,INTERESTED,LATITUDE,LONGITUDE
"In accordance with local MLS rules, some MLS listings are not included in the download"
PAST SALE,December-16-2024,Single Family Residential,8150 Buckthorn Trl,Pine Valley,CA,91962,410000,2,1.0,Pine Valley,1488,12588,1956,,276,,Sold,,,https://www.redfin.com/CA/Pine-Valley/8150-Buckthorn-Trl-91962/home/5120743,SDMLS,240020684,N,Y,32.8340085,-116.5268921
PAST SALE,February-11-2025,Single Family Residential,8315 Chipmunk Ln,Pine Valley,CA,91962,685000,3,2.0,91962 - Pine Valley,1850,14463,1979,,370,,Sold,,,https://www.redfin.com/CA/Pine-Valley/8315-Chipmunk-Ln-91962/home/5121921,CRMLS,NDP2500358,N,Y,32.8367305,-116.5257098
PAST SALE,March-5-2025,Single Family Residential,7705 Calle De Alcalde,Pine Valley,CA,91962,659400,3,1.5,Pine Valley,1674,,1978,,394,,Sold,,,https://www.redfin.com/CA/Pine-Valley/7705-Calle-del-Alcalde-91962/home/5122442,SDMLS,250017540,N,Y,32.826305,-116.523491
PAST SALE,December-19-2024,Single Family Residential,8016 Pine Blvd,Pine Valley,CA,91962,620000,4,2.0,Pine Valley,1975,11976,1998,,314,,Sold,,,https://www.redfin.com/CA/Pine-Valley/8016-Pine-Blvd-91962/home/17192821,SDMLS,240025046,N,Y,32.8302323,-116.5258481
PAST SALE,February-10-2025,Single Family Residential,7729 Pine Blvd,Pine Valley,CA,91962,749000,3,2.0,Pine Valley,1993,,1950,,376,,Sold,,,https://www.redfin.com/CA/Pine-Valley/7729-Pine-Blvd-91962/home/5120882,SDMLS,240027240,N,Y,32.8263722,-116.5257128
PAST SALE,March-3-2025,Vacant Land,0 Camino Tres Aves,Pine Valley,CA,91962,200000,,,91962 - Pine Valley,,5119606,,,,,Sold,,,https://www.redfin.com/CA/Pine-Valley/Camino-Tres-Aves-91962/home/162224097,CRMLS,NDP2405769,N,Y,32.706296,-116.39676
