SALE TYPE,SOLD DATE,PROPERTY TYPE,ADDRESS,CITY,STATE OR PROVINCE,ZIP OR POSTAL CODE,PRICE,BEDS,BATHS,LOCATION,SQUARE FEET,LOT SIZE,YEAR BUILT,DAYS ON MARKET,$/SQUARE FEET,HOA/MONTH,STATUS,NEXT OPEN HOUSE START TIME,NEXT OPEN HOUSE END TIME,URL (SEE https://www.redfin.com/buy-a-home/comparative-market-analysis FOR INFO ON PRICING),SOURCE,MLS#,FAVORITE,INTERESTED,LATITUDE,LONGITUDE
"In accordance with local MLS rules, some MLS listings are not included in the download"
PAST SALE,February-28-2025,Single Family Residential,635 Poplar St,Ramona,CA,92065,1148500,4,3.0,Ramona,2411,189486,2021,,476,,Sold,,,https://www.redfin.com/CA/Ramona/635-Poplar-St-92065/home/22395052,SDMLS,250018186,N,Y,33.0515536,-116.8663616
PAST SALE,December-20-2024,Single Family Residential,24156 Del Amo Rd,Ramona,CA,92065,794500,4,2.0,Ramona,2520,,1979,,315,155,Sold,,,https://www.redfin.com/CA/Ramona/24156-Del-Amo-Rd-92065/home/4310240,SDMLS,240023473,N,Y,33.0166037,-116.8074261
PAST SALE,December-20-2024,Single Family Residential,589 Tag Ln,Ramona,CA,92065,839000,4,3.0,Ramona,2104,39639,1999,,399,,Sold,,,https://www.redfin.com/CA/Ramona/589-Tag-Ln-92065/home/4291179,SDMLS,240020501,N,Y,33.0361453,-116.8705618
PAST SALE,January-20-2025,Single Family Residential,23548 Calistoga Pl,Ramona,CA,92065,904000,3,2.5,Sd country Estates,2402,20514,1989,,376,155,Sold,,,https://www.redfin.com/CA/Ramona/23548-Calistoga-Pl-92065/home/4323997,SDMLS,250000439,N,Y,32.9982269,-116.818372
PAST SALE,February-13-2025,Condo/Co-op,23944 Green Haven Ln,Ramona,CA,92065,590000,3,3.0,Ramona,1847,,1975,,319,640,Sold,,,https://www.redfin.com/CA/Ramona/23944-Green-Haven-Ln-92065/home/4307621,SDMLS,250000310,N,Y,33.0041542,-116.8127718
PAST SALE,March-6-2025,Single Family Residential,2440 Daley St,Ramona,CA,92065,958000,4,3.0,Ramona,2538,64469,1998,,377,,Sold,,,https://www.redfin.com/CA/Ramona/2440-Daley-St-92065/home/4287171,SDMLS,250018500,N,Y,33.0352169,-116.8972596
PAST SALE,March-3-2025,Single Family Residential,23506 Barona Mesa Rd,Ramona,CA,92065,869999,4,2.0,92065 - Ramona,1930,18295,1980,,451,175,Sold,,,https://www.redfin.com/CA/Ramona/23506-Barona-Mesa-Rd-92065/home/4323824,CRMLS,SW25027307,N,Y,32.9957167,-116.8201093
PAST SALE,February-10-2025,Single Family Residential,1857 El Cajon Ln,Ramona,CA,92065,900000,4,3.0,Ramona,2282,22216,1972,,394,,Sold,,,https://www.redfin.com/CA/Ramona/1857-El-Cajon-Ln-92065/home/4291230,SDMLS,250000176,N,Y,33.0249059,-116.878864
PAST SALE,February-3-2025,Single Family Residential,25328 Poderio Dr,Ramona,CA,92065,889000,3,2.0,Ramona,1620,22216,1985,,549,175,Sold,,,https://www.redfin.com/CA/Ramona/25328-Poderio-Dr-92065/home/4313328,SDMLS,250000333,N,Y,33.0060013,-116.7786066
PAST SALE,February-10-2025,Single Family Residential,1022 7th,Ramona,CA,92065,576000,3,2.0,92065 - Ramona,1508,46609,1938,,382,,Sold,,,https://www.redfin.com/CA/Ramona/1022-7th-St-92065/home/4298845,CRMLS,PTP2500614,N,Y,33.0379516,-116.858357
PAST SALE,,Single Family Residential,17061 Harvest Point Way,Ramona,CA,92065,605000,4,2.0,,2301,35284,2000,,263,,,,,https://www.redfin.com/CA/Ramona/17061-Harvest-Point-Way-92065/home/6313363,,,N,Y,33.0225003,-116.8174782
PAST SALE,February-6-2025,Single Family Residential,25050 Poderio Dr,Ramona,CA,92065,815000,4,2.5,92065 - Ramona,2340,23958,1979,,348,175,Sold,,,https://www.redfin.com/CA/Ramona/25050-Poderio-Dr-92065/home/4313648,CRMLS,NDP2500009,N,Y,33.0124204,-116.7871874
PAST SALE,March-3-2025,Single Family Residential,15530 Thornbush Rd,Ramona,CA,92065,885000,4,3.0,Ramona,2333,18730,1999,,379,175,Sold,,,https://www.redfin.com/CA/Ramona/15530-Thornbush-Rd-92065/home/4317665,SDMLS,250017211,N,Y,32.9969466,-116.756382
PAST SALE,February-14-2025,Single Family Residential,2114 Rowley Ave,Ramona,CA,92065,725000,4,4.0,Ramona,2424,,1976,,299,,Sold,,,https://www.redfin.com/CA/Ramona/2114-Rowley-Ave-92065/home/4289451,SDMLS,250001535,N,Y,33.025453,-116.8825452
PAST SALE,January-30-2025,Single Family Residential,672 Philton Dr,Ramona,CA,92065,1030000,4,2.0,92065 - Ramona,2504,182952,1988,,411,,Sold,,,https://www.redfin.com/CA/Ramona/672-Philton-Dr-92065/home/4286027,CRMLS,NDP2500020,N,Y,33.0386404,-116.8334908
PAST SALE,December-23-2024,Multi-Family (2-4 Unit),326 12th St,Ramona,CA,92065,625000,4,2.5,Ramona,1485,3475,1952,,421,,Sold,,,https://www.redfin.com/CA/Ramona/326-12th-St-92065/home/17193899,SDMLS,240027173,N,Y,33.0398174,-116.8712174
PAST SALE,December-18-2024,Single Family Residential,1927 Boundary Ave,Ramona,CA,92065,799450,4,2.0,San Diego,1614,38332,1997,,495,,Sold,,,https://www.redfin.com/CA/Ramona/1927-Boundary-Ave-92065/home/4291029,SDMLS,240026212,N,Y,33.0187711,-116.8802212
PAST SALE,January-13-2025,Single Family Residential,999 Neighborly Ln,Ramona,CA,92065,500000,3,2.0,Ramona,1645,48787,1989,,304,,Sold,,,https://www.redfin.com/CA/Ramona/999-Neighborly-Ln-92065/home/4286813,CRMLS,SR24237463,N,Y,33.0396978,-116.8411757
PAST SALE,February-19-2025,Single Family Residential,24548 Tesoro Way,Ramona,CA,92065,745000,4,2.5,92065 - Ramona,2170,17266,1985,,343,175,Sold,,,https://www.redfin.com/CA/Ramona/24548-Tesoro-Way-92065/home/4310797,CRMLS,PTP2500472,N,Y,33.0122707,-116.8002141
PAST SALE,December-27-2024,Single Family Residential,16273 Arena Dr,Ramona,CA,92065,710000,3,2.0,92065 - Ramona,2096,21739,1976,,339,155,Sold,,,https://www.redfin.com/CA/Ramona/16273-Arena-Dr-92065/home/4305185,CRMLS,PTP2407238,N,Y,33.010537,-116.8123195
PAST SALE,February-19-2025,Single Family Residential,23713 Calistoga Pl,Ramona,CA,92065,858000,4,2.5,Sd country Estates,2296,,1988,,374,155,Sold,,,https://www.redfin.com/CA/Ramona/23713-Calistoga-Pl-92065/home/4306756,SDMLS,240028938,N,Y,32.9989435,-116.8164375
PAST SALE,December-23-2024,Single Family Residential,2458 Raymond Ave,Ramona,CA,92065,815000,3,2.0,92065 - Ramona,1400,93654,1972,,582,,Sold,,,https://www.redfin.com/CA/Ramona/2458-Raymond-Ave-92065/home/4290723,CRMLS,NDP2409805,N,Y,33.0243769,-116.8892065
PAST SALE,January-27-2025,Single Family Residential,19448 Oak Mountain Rd,Ramona,CA,92065,925000,3,3.0,92065 - Ramona,1978,463042,1997,,468,,Sold,,,https://www.redfin.com/CA/Ramona/19448-Oak-Mountain-Rd-92065/home/4302636,CRMLS,NDP2410619,N,Y,33.0663583,-116.7860213
PAST SALE,December-19-2024,Single Family Residential,24234 Cerro Vista Way,Ramona,CA,92065,740000,3,2.0,92065 - Ramona,2118,20908,1979,,349,155,Sold,,,https://www.redfin.com/CA/Ramona/24234-Cerro-Vista-Way-92065/home/4310231,CRMLS,NDP2409438,N,Y,33.0204243,-116.8076925
PAST SALE,December-30-2024,Single Family Residential,935 Etcheverry St,Ramona,CA,92065,840000,3,2.0,Ramona,1795,41817,1970,,468,,Sold,,,https://www.redfin.com/CA/Ramona/935-Etcheverry-St-92065/home/4290867,SDMLS,240027214,N,Y,33.0199906,-116.8882458
PAST SALE,December-18-2024,Single Family Residential,16457 SOMBRA DEL MONTE,Ramona,CA,92065,1155000,3,2.5,92065 - Ramona,2032,108900,1983,,568,,Sold,,,https://www.redfin.com/CA/Ramona/16457-Sombra-del-Monte-92065/home/4273171,CRMLS,NDP2410081,N,Y,33.0167654,-116.949403
PAST SALE,January-9-2025,Single Family Residential,516 G St,Ramona,CA,92065,687000,3,2.0,92065 - Ramona,1450,43560,1953,,474,,Sold,,,https://www.redfin.com/CA/Ramona/516-G-St-92065/home/4297703,CRMLS,PTP2407247,N,Y,33.0422531,-116.8584114
PAST SALE,January-16-2025,Single Family Residential,878 Rykers Ridge Rd,Ramona,CA,92065,849000,3,2.0,92065 - Ramona,1265,109335,2012,,671,,Sold,,,https://www.redfin.com/CA/Ramona/878-Rykers-Ridge-Rd-92065/home/4286689,CRMLS,PTP2407208,N,Y,33.0434673,-116.8426828
PAST SALE,January-16-2025,Single Family Residential,16553 Dartolo Rd,Ramona,CA,92065,900000,4,2.5,92065 - Ramona,2016,21780,1998,,446,155,Sold,,,https://www.redfin.com/CA/Ramona/16553-Dartolo-Rd-92065/home/4315437,CRMLS,NDP2410421,N,Y,33.0146463,-116.7901614
PAST SALE,December-12-2024,Single Family Residential,23812 Oak Meadow Dr,Ramona,CA,92065,750000,4,2.0,Ramona,1650,5,1987,,455,155,Sold,,,https://www.redfin.com/CA/Ramona/23812-Oak-Meadow-Dr-92065/home/4309594,SDMLS,240024853,N,Y,33.0162625,-116.8140225
PAST SALE,January-15-2025,Single Family Residential,24601 Watt Rd,Ramona,CA,92065,775000,3,2.0,92065 - Ramona,1649,24393,1980,,470,165,Sold,,,https://www.redfin.com/CA/Ramona/24601-Watt-Rd-92065/home/4305921,CRMLS,NDP2410235,N,Y,33.0091273,-116.7992908
PAST SALE,January-15-2025,Single Family Residential,16887 Daza Dr,Ramona,CA,92065,729000,3,2.0,SD COUNTRY ESTATES,1668,17424,1988,,437,155,Sold,,,https://www.redfin.com/CA/Ramona/16887-Daza-Dr-92065/home/4314932,CRMLS,NDP2409769,N,Y,33.007396,-116.7889827
PAST SALE,January-7-2025,Single Family Residential,24718 Zanja Pl,Ramona,CA,92065,819000,5,4.5,Ramona,5685,19166,1980,,144,155,Sold,,,https://www.redfin.com/CA/Ramona/24718-Zanja-Pl-92065/home/4315248,SDMLS,240025542,N,Y,33.014273,-116.7945126
PAST SALE,December-10-2024,Single Family Residential,18333 Old Carousel Ranch Rd,Ramona,CA,92065,855000,3,2.0,Ramona,2170,,1995,,394,,Sold,,,https://www.redfin.com/CA/Ramona/18333-Old-Carousel-Ranch-Rd-92065/home/4272756,SDMLS,240022240,N,Y,33.0132086,-116.9321863
PAST SALE,December-23-2024,Single Family Residential,23724 Calistoga Pl,Ramona,CA,92065,810000,3,2.5,Ramona,2110,23087,1983,,384,155,Sold,,,https://www.redfin.com/CA/Ramona/23724-Calistoga-Pl-92065/home/4306726,SDMLS,240025882,N,Y,32.9992292,-116.8164035
PAST SALE,December-30-2024,Single Family Residential,16233 Swartz Canyon Rd,Ramona,CA,92065,899000,3,2.0,92065 - Ramona,2218,47916,2003,,405,155,Sold,,,https://www.redfin.com/CA/Ramona/16233-Swartz-Canyon-Rd-92065/home/4310356,CRMLS,NDP2409785,N,Y,33.0109684,-116.8059086
PAST SALE,December-30-2024,Single Family Residential,25491 Rancho Barona Rd,Ramona,CA,92065,1400000,4,4.0,92065 - Ramona,3200,435600,2004,,438,,Sold,,,https://www.redfin.com/CA/Ramona/25491-Rancho-Barona-Rd-92065/home/4849403,CRMLS,NDP2408305,N,Y,32.9810865,-116.7714668
PAST SALE,February-10-2025,Single Family Residential,717 Hunter St,Ramona,CA,92065,845000,3,2.0,Ramona,1854,11608,1986,,456,,Sold,,,https://www.redfin.com/CA/Ramona/717-Hunter-St-92065/home/4289412,SDMLS,240028329,N,Y,33.0256018,-116.8851362
PAST SALE,December-23-2024,Single Family Residential,16839 Daza Dr,Ramona,CA,92065,1007000,5,4.5,92065 - Ramona,4000,22215,1989,,252,155,Sold,,,https://www.redfin.com/CA/Ramona/16839-Daza-Dr-92065/home/4315161,CRMLS,NDP2409085,N,Y,33.0091113,-116.7887985
PAST SALE,December-23-2024,Single Family Residential,337 Woodmeadow Ln,Ramona,CA,92065,1125800,4,2.5,92065 - Ramona,2407,228254,2002,,468,,Sold,,,https://www.redfin.com/CA/Ramona/337-Woodmeadow-Ln-92065/home/4285979,CRMLS,NDP2409225,N,Y,33.0442031,-116.8339919
PAST SALE,January-31-2025,Vacant Land,Mariposa Rdg,Ramona,CA,92065,175000,0,,Ramona,,217800,,,,,Sold,,,https://www.redfin.com/CA/Ramona/Mariposa-Rdg-92065/home/162382195,SDMLS,240028090,N,Y,32.999555,-116.79297
PAST SALE,February-6-2025,Condo/Co-op,1604 Montecito Rd #24,Ramona,CA,92065,330500,2,1.5,92065 - Ramona,884,39421,1981,,374,258,Sold,,,https://www.redfin.com/CA/Ramona/1604-Montecito-Rd-92065/unit-24/home/4282703,CRMLS,PTP2407676,N,Y,33.0396469,-116.8796892
PAST SALE,February-28-2025,Single Family Residential,23358 Glenn Ellen Way,Ramona,CA,92065,672000,4,2.5,Sd country Estates,2213,17424,1991,,304,175,Sold,,,https://www.redfin.com/CA/Ramona/23358-Glenn-Ellen-Way-92065/home/6394245,SDMLS,240029011,N,Y,33.006062,-116.8251606
PAST SALE,January-28-2025,Single Family Residential,16718 Daza Dr,Ramona,CA,92065,704000,3,2.5,92065 - Ramona,1902,21780,1979,,370,155,Sold,,,https://www.redfin.com/CA/Ramona/16718-Daza-Dr-92065/home/4315299,CRMLS,PTP2406565,N,Y,33.0139107,-116.7893049
PAST SALE,December-26-2024,Condo/Co-op,15723 Davis Cup Ln,Ramona,CA,92065,485000,2,2.0,92065 - Ramona,1575,,1978,,308,549,Sold,,,https://www.redfin.com/CA/Ramona/15723-Davis-Cup-Ln-92065/home/4318313,CRMLS,PTP2405850,N,Y,33.0019289,-116.782662
PAST SALE,January-15-2025,Single Family Residential,19518 Rancho Villa Norte,Ramona,CA,92065,2625000,5,3.5,Ramona,3446,348480,2015,,762,,Sold,,,https://www.redfin.com/CA/Ramona/19518-Rancho-Villa-Norte-92065/home/95961792,SDMLS,240025430,N,Y,33.083396,-116.893928
PAST SALE,February-19-2025,Single Family Residential,17272 St Helena Dr,Ramona,CA,92065,689900,3,2.0,Ramona,2093,20136,1980,,330,155,Sold,,,https://www.redfin.com/CA/Ramona/17272-St-Helena-Dr-92065/home/4312696,SDMLS,240027232,N,Y,33.0252621,-116.8075276
PAST SALE,February-4-2025,Single Family Residential,23826 Vista Ramona Rd,Ramona,CA,92065,715000,3,2.0,Ramona,1488,19101,1987,,481,155,Sold,,,https://www.redfin.com/CA/Ramona/23826-Vista-Ramona-Rd-92065/home/4312900,SDMLS,240026776,N,Y,33.0259902,-116.810915
PAST SALE,December-26-2024,Single Family Residential,18910 Highland Valley Rd,Ramona,CA,92065,900000,4,3.0,Ramona,2550,43560,1973,,353,,Sold,,,https://www.redfin.com/CA/Ramona/18910-Highland-Valley-Rd-92065/home/4293243,CRMLS,SW24205202,N,Y,33.018864,-116.9214459
PAST SALE,December-16-2024,Single Family Residential,23423 Nightsky Rd,Ramona,CA,92065,885000,3,2.0,92065 - Ramona,2004,25700,2001,,442,84,Sold,,,https://www.redfin.com/CA/Ramona/23423-Nightsky-Rd-92065/home/6394209,CRMLS,NDP2408672,N,Y,33.0192148,-116.819728
PAST SALE,January-22-2025,Single Family Residential,447 F St,Ramona,CA,92065,632500,3,2.0,Ramona,1425,,1955,,444,,Sold,,,https://www.redfin.com/CA/Ramona/447-F-St-92065/home/4284677,SDMLS,240025156,N,Y,33.0440306,-116.8585004
PAST SALE,February-28-2025,Vacant Land,0 Piedmont,Ramona,CA,92065,185000,,,92065 - Ramona,,88426,,,,,Sold,,,https://www.redfin.com/CA/Ramona/Piedmont-Rd-92065/home/22692200,CRMLS,NDP2409336,N,Y,33.062601,-116.847824
PAST SALE,January-6-2025,Single Family Residential,17307 Rising Dale Way,Ramona,CA,92065,939000,4,2.0,Ramona,2455,33541,2001,,382,84,Sold,,,https://www.redfin.com/CA/Ramona/17307-Rising-Dale-Way-92065/home/6313544,SDMLS,240023735,N,Y,33.0273616,-116.8212537
PAST SALE,December-30-2024,Single Family Residential,26029 Bellemore Dr,Ramona,CA,92065,724999,3,2.0,92065 - Ramona,1501,19602,1987,,483,155,Sold,,,https://www.redfin.com/CA/Ramona/26029-Bellemore-Dr-92065/home/4316833,CRMLS,NDP2409031,N,Y,33.0010489,-116.7647063
PAST SALE,January-8-2025,Single Family Residential,17225 St Helena Dr,Ramona,CA,92065,759919,4,2.5,Ramona,2436,20703,2005,,312,155,Sold,,,https://www.redfin.com/CA/Ramona/17225-St-Helena-Dr-92065/home/4312756,SDMLS,240023227,N,Y,33.0237582,-116.8059367
PAST SALE,February-10-2025,Single Family Residential,19502 Vista Del Otero,Ramona,CA,92065,1695000,4,3.5,92065 - Ramona,3754,388555,2001,,452,,Sold,,,https://www.redfin.com/CA/Ramona/19502-Vista-del-Otero-92065/home/4269240,CRMLS,NDP2409814,N,Y,33.0705394,-116.9381948
PAST SALE,January-6-2025,Single Family Residential,23437 Everett Pl,Ramona,CA,92065,760000,3,2.0,Ramona,2119,17950,1981,,359,155,Sold,,,https://www.redfin.com/CA/Ramona/23437-Everett-Pl-92065/home/4309018,SDMLS,240022536,N,Y,33.0117083,-116.8244131
PAST SALE,February-27-2025,Condo/Co-op,23943 Green Haven Ln,Ramona,CA,92065,535000,2,2.5,92065 - Ramona,1498,,1975,,357,620,Sold,,,https://www.redfin.com/CA/Ramona/23943-Green-Haven-Ln-92065/home/4307589,CRMLS,NDP2409959,N,Y,33.0037426,-116.8130875
PAST SALE,December-12-2024,Vacant Land,23835 Ladrido Ln,Ramona,CA,92065,365000,,,92065 - Ramona,,3953070,,,,,Sold,,,https://www.redfin.com/CA/Ramona/23835-Ladrido-Ln-92065/home/175257219,CRMLS,NDP2405630,N,Y,33.093011,-116.821381
PAST SALE,January-15-2025,Single Family Residential,16521 Wikiup Rd,Ramona,CA,92065,730000,3,2.0,Ramona,1920,30492,1989,,380,155,Sold,,,https://www.redfin.com/CA/Ramona/16521-Wikiup-Rd-92065/home/4310522,SDMLS,240022655,N,Y,33.0166001,-116.7986384
PAST SALE,January-29-2025,Single Family Residential,24511 Watt Rd,Ramona,CA,92065,835000,4,2.0,92065 - Ramona,2208,24393,1980,,378,155,Sold,,,https://www.redfin.com/CA/Ramona/24511-Watt-Rd-92065/home/4305879,CRMLS,NDP2408924,N,Y,33.0091148,-116.8012498
PAST SALE,December-24-2024,Vacant Land,Lamar,Ramona,CA,92065,420000,0,,Ramona,,422532,,,,,Sold,,,https://www.redfin.com/CA/Ramona/Unknown-92065/home/22269075,SDMLS,240015681,N,Y,33.048513,-116.893678
PAST SALE,December-20-2024,Single Family Residential,15707 Vista Vicente Dr,Ramona,CA,92065,880000,3,2.5,Ramona,2739,11202,1986,,321,155,Sold,,,https://www.redfin.com/CA/Ramona/15707-Vista-Vicente-Dr-92065/home/4306848,SDMLS,240023262,N,Y,33.0024327,-116.8175377
PAST SALE,February-28-2025,Single Family Residential,17207 Voorhes Ln,Ramona,CA,92065,630000,2,1.0,92065 - Ramona,850,37026,1962,,741,,Sold,,,https://www.redfin.com/CA/Ramona/17207-Voorhes-Ln-92065/home/4287056,CRMLS,SW24238218,N,Y,33.0237447,-116.9264821
PAST SALE,January-17-2025,Single Family Residential,1786 Pine St,Ramona,CA,92065,975000,4,2.0,92065 - Ramona,2508,174675,1990,,389,,Sold,,,https://www.redfin.com/CA/Ramona/1786-Pine-St-92065/home/4277492,CRMLS,NDP2409168,N,Y,33.0726366,-116.872353
PAST SALE,January-8-2025,Single Family Residential,19462 Highland Hills Dr,Ramona,CA,92065,1475000,4,5.5,92065 - Ramona,3800,530560,2023,,388,82,Sold,,,https://www.redfin.com/CA/Ramona/19462-Highland-Hills-Dr-92065/home/185556780,CRMLS,NDP2407694,N,Y,33.0737795,-116.925286
PAST SALE,January-15-2025,Single Family Residential,20249 Eagle Hill Ln,Ramona,CA,92065,1250000,5,4.5,92065 - Ramona,4877,232174,2002,,256,,Sold,,,https://www.redfin.com/CA/Ramona/20249-Eagle-Hill-Ln-92065/home/22630363,CRMLS,NDP2408700,N,Y,33.0798634,-116.8842614
PAST SALE,,Single Family Residential,19458 Highland Hills Dr #62,Ramona,CA,92065,1475000,4,6.0,,4031,530561,2000,,366,,,,,https://www.redfin.com/CA/Ramona/19458-Highland-Hills-Dr-92065/unit-62/home/4278398,,,N,Y,33.074915,-116.925135
PAST SALE,January-6-2025,Single Family Residential,2411 San Vicente Rd,Ramona,CA,92065,1200000,3,1.0,92065 - Ramona,1200,713948,1962,,1000,,Sold,,,https://www.redfin.com/CA/Ramona/2411-San-Vicente-Rd-92065/home/52511754,CRMLS,NDP2406991,N,Y,33.0087102,-116.8687411
PAST SALE,February-28-2025,Single Family Residential,25717 Caryn Ct,Ramona,CA,92065,795000,4,2.0,92065 - Ramona,2212,26571,1997,,359,150,Sold,,,https://www.redfin.com/CA/Ramona/25717-Caryn-Ct-92065/home/4315622,CRMLS,NDP2407226,N,Y,33.0041564,-116.770293
PAST SALE,January-15-2025,Condo/Co-op,15615 Vista Vicente Dr #10,Ramona,CA,92065,675000,3,3.5,92065 - Ramona,2273,354142,1987,,297,455,Sold,,,https://www.redfin.com/CA/Ramona/15615-Vista-Vicente-Dr-92065/unit-10/home/4308727,CRMLS,NDP2407315,N,Y,33.0011524,-116.8154654
PAST SALE,January-27-2025,Single Family Residential,1217 Cedar St,Ramona,CA,92065,1225000,5,3.0,92065 - Ramona,3135,208216,1973,,391,,Sold,,,https://www.redfin.com/CA/Ramona/1217-Cedar-St-92065/home/4279688,CRMLS,NDP2408004,N,Y,33.055811,-116.8787261
PAST SALE,December-12-2024,Single Family Residential,523 Washington St,Ramona,CA,92065,975000,3,2.0,92065 - Ramona,1841,125017,1989,,530,,Sold,,,https://www.redfin.com/CA/Ramona/523-Washington-St-92065/home/4280563,CRMLS,NDP2404971,N,Y,33.071824,-116.8491839
PAST SALE,December-30-2024,Condo/Co-op,23825 Green Haven Ln,Ramona,CA,92065,510000,3,2.5,92065 - Ramona,1498,,1975,,340,605,Sold,,,https://www.redfin.com/CA/Ramona/23825-Green-Haven-Ln-92065/home/4307371,CRMLS,NDP2405954,N,Y,33.0046045,-116.81321
PAST SALE,March-7-2025,Single Family Residential,22365 Jans Oak Vw,Ramona,CA,92065,885000,4,2.5,Ramona,2444,98010,2005,,362,,Sold,,,https://www.redfin.com/CA/Ramona/22365-Jans-Oak-Vw-92065/home/4848667,SDMLS,240022565,N,Y,32.9897577,-116.844789
PAST SALE,February-26-2025,Single Family Residential,23726 Gymkhana Rd,Ramona,CA,92065,993000,6,4.5,92065 - Ramona,2900,26136,2006,,342,155,Sold,,,https://www.redfin.com/CA/Ramona/23726-Gymkhana-Rd-92065/home/4310814,CRMLS,PTP2405228,N,Y,33.0213696,-116.8145436
PAST SALE,February-7-2025,Condo/Co-op,15712 Davis Cup Ln,Ramona,CA,92065,460000,3,2.0,Sd Country Estates,1575,831646,1978,,292,549,Sold,,,https://www.redfin.com/CA/Ramona/15712-Davis-Cup-Ln-92065/home/4318173,CRMLS,SW24091241,N,Y,33.002194,-116.782465
PAST SALE,March-3-2025,Condo/Co-op,23851 Green Haven Ln,Ramona,CA,92065,582000,3,3.0,92065 - Ramona,1847,304920,1975,,315,670,Sold,,,https://www.redfin.com/CA/Ramona/23851-Green-Haven-Ln-92065/home/4307409,CRMLS,NDP2404508,N,Y,33.0037426,-116.8130875
PAST SALE,,Vacant Land,17168 Salt Mine Rd,Ramona,CA,92065,239000,,,,,337154,,,,,,,,https://www.redfin.com/CA/Ramona/17168-Salt-Mine-Rd-92065/home/22232773,,,N,Y,33.0196799,-116.9595197
PAST SALE,,Vacant Land,67,Ramona,CA,92065,300000,,,,,509652,,,,,,,,https://www.redfin.com/CA/Ramona/67-92065/home/112890344,,,N,Y,33.015932,-116.908206
PAST SALE,,Vacant Land,Copper View Ct,Ramona,CA,92065,250000,,,,,128066,,,,,,,,https://www.redfin.com/CA/Ramona/Copper-View-Ct-92065/home/28891625,,,N,Y,33.044405,-116.902825
PAST SALE,,Vacant Land,,Ramona,CA,92065,189000,,,,,435600,,,,,,,,https://www.redfin.com/CA/Ramona/Unknown-92065/home/162749739,,,N,Y,32.981299,-116.791688
PAST SALE,,Single Family Residential,1318 Olive St,Ramona,CA,92065,600000,4,2.0,,2356,98881,1972,,255,,,,,https://www.redfin.com/CA/Ramona/1318-Olive-St-92065/home/4282454,,,N,Y,33.0471132,-116.8802084
