SALE TYPE,SOLD DATE,PROPERTY TYPE,ADDRESS,CITY,STATE OR PROVINCE,ZIP OR POSTAL CODE,PRICE,BEDS,BATHS,LOCATION,SQUARE FEET,LOT SIZE,YEAR BUILT,DAYS ON MARKET,$/SQUARE FEET,HOA/MONTH,STATUS,NEXT OPEN HOUSE START TIME,NEXT OPEN HOUSE END TIME,URL (SEE https://www.redfin.com/buy-a-home/comparative-market-analysis FOR INFO ON PRICING),SOURCE,MLS#,FAVORITE,INTERESTED,LATITUDE,LONGITUDE
"In accordance with local MLS rules, some MLS listings are not included in the download"
PAST SALE,February-18-2025,Single Family Residential,6922 Enders Ave,San Diego,CA,92122,1525000,5,2.0,San Diego,1680,7400,1970,,908,,Sold,,,https://www.redfin.com/CA/San-Diego/6922-Enders-Ave-92122/home/4898325,SDMLS,250017214,N,Y,32.8566603,-117.1893142
PAST SALE,February-3-2025,Condo/Co-op,3915 Nobel Dr #14,San Diego,CA,92122,725000,2,2.5,La Jolla,1100,393308,1987,,659,230,Sold,,,https://www.redfin.com/CA/San-Diego/3915-Nobel-Dr-92122/unit-14/home/6648906,SDMLS,240017997,N,Y,32.8681618,-117.2223731
PAST SALE,February-18-2025,Condo/Co-op,8328 Regents Rd Unit 1B,San Diego,CA,92122,545000,2,2.0,University City,894,61285,1985,,610,480,Sold,,,https://www.redfin.com/CA/San-Diego/8328-Regents-Rd-92122/unit-1B/home/4869588,SDMLS,250019236,N,Y,32.8662646,-117.2217028
PAST SALE,March-3-2025,Single Family Residential,3976 Caminito Silvela,San Diego,CA,92122,877500,2,2.0,San Diego,1112,3552,1988,,789,,Sold,,,https://www.redfin.com/CA/San-Diego/3976-Caminito-Silvela-92122/home/4890695,SDMLS,250019278,N,Y,32.8592368,-117.2283538
PAST SALE,,Single Family Residential,6086 Via Regla,San Diego,CA,92122,800000,4,2.0,,3072,10500,1973,,260,,,,,https://www.redfin.com/CA/San-Diego/6086-Via-Regla-92122/home/4903470,,,N,Y,32.849129,-117.1885491
PAST SALE,January-16-2025,Condo/Co-op,3890 Nobel Dr #1904,San Diego,CA,92122,750000,2,2.0,92122 - University City,1200,44004,1991,,625,3720,Sold,,,https://www.redfin.com/CA/San-Diego/3890-Nobel-Dr-92122/unit-1904/home/4871540,CRMLS,NDP2500208,N,Y,32.868689,-117.223012
PAST SALE,January-21-2025,Condo/Co-op,3975 Camino Lindo,San Diego,CA,92122,875000,3,2.5,92122 - University City,1380,,1978,,634,485,Sold,,,https://www.redfin.com/CA/San-Diego/3975-Camino-Lindo-92122/home/6406161,CRMLS,NDP2410318,N,Y,32.859189,-117.219724
PAST SALE,January-9-2025,Condo/Co-op,8148 Avenida Navidad #11,San Diego,CA,92122,675000,2,2.0,University City,1080,79599,1987,,625,550,Sold,,,https://www.redfin.com/CA/San-Diego/8148-Avenida-Navidad-92122/unit-11/home/4871586,SDMLS,240028350,N,Y,32.8649453,-117.2119169
PAST SALE,January-14-2025,Condo/Co-op,3890 Nobel Dr #1704,San Diego,CA,92122,800000,2,2.0,University City,1536,,1991,,521,3759,Sold,,,https://www.redfin.com/CA/San-Diego/3890-Nobel-Dr-92122/unit-1704/home/4871516,SDMLS,240026629,N,Y,32.868689,-117.223012
PAST SALE,February-25-2025,Townhouse,5532 Renaissance #1,San Diego,CA,92122,949000,2,2.0,University City,1092,,1996,,869,445,Sold,,,https://www.redfin.com/CA/San-Diego/5532-Renaissance-Ave-92122/unit-1/home/4874549,SDMLS,250000862,N,Y,32.8699587,-117.2054723
PAST SALE,March-6-2025,Single Family Residential,7119 Cather Ct,San Diego,CA,92122,2250000,3,3.5,University City,3987,10500,1988,,564,,Sold,,,https://www.redfin.com/CA/San-Diego/7119-Cather-Ct-92122/home/4899825,SDMLS,250018219,N,Y,32.8594653,-117.1970375
PAST SALE,February-27-2025,Single Family Residential,6128 Syracuse Ln,San Diego,CA,92122,1610000,4,2.0,University City,1715,7000,1970,,939,,Sold,,,https://www.redfin.com/CA/San-Diego/6128-Syracuse-Ln-92122/home/4904157,SDMLS,250017708,N,Y,32.8486172,-117.2076452
PAST SALE,January-14-2025,Single Family Residential,5389 Bloch St,San Diego,CA,92122,1640000,5,3.0,University City,2225,10100,1974,,737,,Sold,,,https://www.redfin.com/CA/San-Diego/5389-Bloch-St-92122/home/6235732,SDMLS,240028139,N,Y,32.8409213,-117.2321677
PAST SALE,February-3-2025,Single Family Residential,4289 Caminito Terviso,San Diego,CA,92122,2300000,3,2.5,La Jolla,2317,4427,1986,,993,349,Sold,,,https://www.redfin.com/CA/San-Diego/4289-Caminito-Terviso-92122/home/4888997,SDMLS,250000960,N,Y,32.8586594,-117.2225155
PAST SALE,January-10-2025,Single Family Residential,6560 Cascade St,San Diego,CA,92122,1383000,4,2.0,University City,1319,8400,1964,,1049,,Sold,,,https://www.redfin.com/CA/San-Diego/6560-Cascade-St-92122/home/4894085,SDMLS,240027813,N,Y,32.856277,-117.2087019
PAST SALE,February-4-2025,Condo/Co-op,6263 Caminito Carrena,San Diego,CA,92122,875000,2,2.0,92122 - University City,1366,285675,1977,,641,515,Sold,,,https://www.redfin.com/CA/San-Diego/6263-Caminito-Carrena-92122/home/4904364,CRMLS,NDP2500388,N,Y,32.8512718,-117.2047923
PAST SALE,January-22-2025,Condo/Co-op,7545 Charmant Dr #1201,San Diego,CA,92122,555000,2,1.0,University City,796,,1987,,697,585,Sold,,,https://www.redfin.com/CA/San-Diego/7545-Charmant-Dr-92122/unit-1201/home/7541399,SDMLS,250000286,N,Y,32.8642997,-117.2261901
PAST SALE,January-6-2025,Single Family Residential,5723 Scripps St,San Diego,CA,92122,1530000,4,2.0,University City,1500,5800,1962,,1020,,Sold,,,https://www.redfin.com/CA/San-Diego/5723-Scripps-St-92122/home/6234631,SDMLS,240027541,N,Y,32.8464196,-117.2164764
PAST SALE,January-21-2025,Single Family Residential,3583 Syracuse Ave,San Diego,CA,92122,1210000,3,2.0,San Diego,1604,9400,1970,,754,,Sold,,,https://www.redfin.com/CA/San-Diego/3583-Syracuse-Ave-92122/home/4904208,CRMLS,OC24211323,N,Y,32.8469714,-117.2080587
PAST SALE,February-11-2025,Single Family Residential,4176 Caminito Terviso,San Diego,CA,92122,1850000,3,2.5,La Jolla,1800,5597,1986,,1028,352,Sold,,,https://www.redfin.com/CA/San-Diego/4176-Caminito-Terviso-92122/home/4888983,SDMLS,250000915,N,Y,32.8582697,-117.2239973
PAST SALE,March-5-2025,Condo/Co-op,3929 Nobel Dr #81,San Diego,CA,92122,585000,1,1.0,University City,600,,1987,,975,190,Sold,,,https://www.redfin.com/CA/San-Diego/3929-Nobel-Dr-92122/unit-81/home/6649208,SDMLS,250000854,N,Y,32.8673774,-117.222068
PAST SALE,February-4-2025,Condo/Co-op,4015 Porte La Paz #132,San Diego,CA,92122,790000,2,2.0,University City,1086,102478,1986,,727,471,Sold,,,https://www.redfin.com/CA/San-Diego/4015-Porte-La-Paz-92122/unit-132/home/4889244,SDMLS,240028775,N,Y,32.8563586,-117.2292008
PAST SALE,December-19-2024,Condo/Co-op,5115 Renaissance Ave Unit A,San Diego,CA,92122,1393900,3,2.5,University City,2101,,1991,,663,598,Sold,,,https://www.redfin.com/CA/San-Diego/5115-Renaissance-Ave-92122/unit-A/home/4874201,SDMLS,240027400,N,Y,32.8651057,-117.207003
PAST SALE,December-20-2024,Townhouse,5390 Renaissance Ave #26,San Diego,CA,92122,1856400,4,2.5,University City,2706,305123,1995,,686,794,Sold,,,https://www.redfin.com/CA/San-Diego/5390-Renaissance-Ave-92122/unit-26/home/4874343,SDMLS,240027059,N,Y,32.867879,-117.2047652
PAST SALE,January-29-2025,Single Family Residential,7007 Dennison St,San Diego,CA,92122,1700000,3,2.0,University City,1530,9700,1967,,1111,,Sold,,,https://www.redfin.com/CA/San-Diego/7007-Dennison-St-92122/home/4895047,SDMLS,240028639,N,Y,32.8587533,-117.2091643
PAST SALE,,Condo/Co-op,3969 Nobel Dr #288,San Diego,CA,92122,682500,2,3.0,,1100,,1987,,620,,,,,https://www.redfin.com/CA/San-Diego/3969-Nobel-Dr-92122/unit-288/home/6649668,,,N,Y,32.8674619,-117.2205104
PAST SALE,January-21-2025,Condo/Co-op,4010 Porte La Paz #66,San Diego,CA,92122,725000,2,2.0,92122 - University City,966,,1985,,751,475,Sold,,,https://www.redfin.com/CA/San-Diego/4010-Porte-La-Paz-92122/unit-66/home/4889182,CRMLS,PTP2407531,N,Y,32.8567287,-117.2291961
PAST SALE,December-31-2024,Condo/Co-op,8324 Regents Rd Unit 3P,San Diego,CA,92122,565000,2,2.0,La Jolla,866,,1985,,652,482,Sold,,,https://www.redfin.com/CA/San-Diego/8324-Regents-Rd-92122/unit-3P/home/4869691,SDMLS,240025968,N,Y,32.866623,-117.2217409
PAST SALE,March-3-2025,Condo/Co-op,4050 Porte La Paz #50,San Diego,CA,92122,720000,2,2.0,La Jolla,966,113554,1985,,745,465,Sold,,,https://www.redfin.com/CA/San-Diego/4050-Porte-La-Paz-92122/unit-50/home/4889166,SDMLS,250000654,N,Y,32.8570507,-117.2287855
PAST SALE,January-7-2025,Single Family Residential,2555 San Clemente Ter,San Diego,CA,92122,2030000,4,2.5,University City,2464,14600,1976,,824,,Sold,,,https://www.redfin.com/CA/San-Diego/2555-San-Clemente-Ter-92122/home/6235722,SDMLS,240027036,N,Y,32.8412838,-117.230896
PAST SALE,January-6-2025,Condo/Co-op,7620 Palmilla Dr #68,San Diego,CA,92122,815000,2,2.0,University City,1004,,1987,,812,526,Sold,,,https://www.redfin.com/CA/San-Diego/7620-Palmilla-Dr-92122/unit-68/home/4890410,SDMLS,240026720,N,Y,32.862423,-117.2262962
PAST SALE,January-27-2025,Single Family Residential,2578 Soderblom Ave,San Diego,CA,92122,1825000,4,3.0,University City,2054,8000,1962,,889,,Sold,,,https://www.redfin.com/CA/San-Diego/2578-Soderblom-Ave-92122/home/6235879,SDMLS,240028490,N,Y,32.8438056,-117.2311722
PAST SALE,January-21-2025,Condo/Co-op,6176 Agee St #101,San Diego,CA,92122,491000,1,1.0,University City,692,,1978,,710,264,Sold,,,https://www.redfin.com/CA/San-Diego/6176-Agee-St-92122/unit-101/home/4893495,SDMLS,240028107,N,Y,32.8525908,-117.2020966
PAST SALE,February-21-2025,Condo/Co-op,7545 Charmant Dr #1505,San Diego,CA,92122,555000,1,1.0,92122 - University City,704,337154,1987,,788,456,Sold,,,https://www.redfin.com/CA/San-Diego/7545-Charmant-Dr-92122/unit-1505/home/7541411,CRMLS,NDP2500138,N,Y,32.8642997,-117.2261901
PAST SALE,January-7-2025,Single Family Residential,4371 Huggins St,San Diego,CA,92122,1500000,3,2.0,92122 - University City,1496,7300,1973,,1003,,Sold,,,https://www.redfin.com/CA/San-Diego/4371-Huggins-St-92122/home/4904088,CRMLS,NDP2409783,N,Y,32.8606896,-117.1980435
PAST SALE,January-10-2025,Single Family Residential,6604 Red Deer St,San Diego,CA,92122,1605000,3,2.0,University City,1672,6500,1970,,960,,Sold,,,https://www.redfin.com/CA/San-Diego/6604-Red-Deer-St-92122/home/4898221,SDMLS,240026243,N,Y,32.8578132,-117.2030165
PAST SALE,December-10-2024,Townhouse,7942 Playmor Ter,San Diego,CA,92122,908000,3,2.5,University City,1342,31847,1977,,677,435,Sold,,,https://www.redfin.com/CA/San-Diego/7942-Playmor-Ter-92122/home/4901394,SDMLS,240024998,N,Y,32.8620365,-117.2182113
PAST SALE,February-13-2025,Condo/Co-op,8158 Avenida Navidad #11,San Diego,CA,92122,824998,2,2.0,University City,1179,,1987,,700,550,Sold,,,https://www.redfin.com/CA/San-Diego/8158-Avenida-Navidad-92122/unit-11/home/4871564,SDMLS,240027307,N,Y,32.864714,-117.212001
PAST SALE,December-30-2024,Single Family Residential,3411 Tony Dr,San Diego,CA,92122,1590000,4,2.0,92122 - University City,1966,20500,1970,,809,,Sold,,,https://www.redfin.com/CA/San-Diego/3411-Tony-Dr-92122/home/4898386,CRMLS,NDP2409486,N,Y,32.8579724,-117.2113726
PAST SALE,January-22-2025,Condo/Co-op,3550 Lebon Dr #6329,San Diego,CA,92122,590000,1,1.0,University City,723,,2006,,816,329,Sold,,,https://www.redfin.com/CA/San-Diego/3550-Lebon-Dr-92122/unit-6329/home/7533336,CRMLS,SW24237141,N,Y,32.869521,-117.2253086
PAST SALE,February-24-2025,Single Family Residential,4073 Caminito Terviso,San Diego,CA,92122,1657000,3,2.5,University City,1800,5404,1987,,921,352,Sold,,,https://www.redfin.com/CA/San-Diego/4073-Caminito-Terviso-92122/home/4889071,SDMLS,SDC0000961,N,Y,32.8573604,-117.2252615
PAST SALE,March-7-2025,Condo/Co-op,4385 Nobel Dr #94,San Diego,CA,92122,960000,2,2.5,University City,1766,60442,1987,,544,482,Sold,,,https://www.redfin.com/CA/San-Diego/4385-Nobel-Dr-92122/unit-94/home/4872685,CRMLS,OC24244296,N,Y,32.8660503,-117.2115033
PAST SALE,January-3-2025,Townhouse,6203 Caminito Araya,San Diego,CA,92122,635000,1,1.5,92122 - University City,914,285819,1977,,695,451,Sold,,,https://www.redfin.com/CA/San-Diego/6203-Caminito-Araya-92122/home/4904339,CRMLS,SW24215743,N,Y,32.851125,-117.204763
PAST SALE,December-31-2024,Single Family Residential,5815 Ithaca Pl,San Diego,CA,92122,1520000,4,3.5,92122 - University City,2310,10000,1984,,658,,Sold,,,https://www.redfin.com/CA/San-Diego/5815-Ithaca-Pl-92122/home/6235139,CRMLS,NDP2409695,N,Y,32.8473842,-117.2114036
PAST SALE,December-18-2024,Single Family Residential,5463 Barkla St,San Diego,CA,92122,2027000,5,3.5,University City,2410,6600,1973,,841,,Sold,,,https://www.redfin.com/CA/San-Diego/5463-Barkla-St-92122/home/6235818,SDMLS,240021465,N,Y,32.8424718,-117.2312164
PAST SALE,January-27-2025,Condo/Co-op,7120 Shoreline Dr #2105,San Diego,CA,92122,715000,2,2.0,92122 - University City,848,150717,1988,,843,467,Sold,,,https://www.redfin.com/CA/San-Diego/7120-Shoreline-Dr-92122/unit-2105/home/7495742,CRMLS,NDP2409812,N,Y,32.8634418,-117.2004917
PAST SALE,February-25-2025,Single Family Residential,3210 Villanova Ave,San Diego,CA,92122,1795000,5,3.0,University City,2575,,1967,,697,,Sold,,,https://www.redfin.com/CA/San-Diego/3210-Villanova-Ave-92122/home/4895129,SDMLS,240027305,N,Y,32.8560318,-117.2144443
PAST SALE,January-13-2025,Condo/Co-op,3969 Nobel Dr #275,San Diego,CA,92122,565000,1,1.0,92122 - University City,554,393346,1987,,1020,179,Sold,,,https://www.redfin.com/CA/San-Diego/3969-Nobel-Dr-92122/unit-275/home/6649634,CRMLS,NDP2408000,N,Y,32.8674619,-117.2205104
PAST SALE,February-28-2025,Condo/Co-op,8324 Regents Rd Unit 1O,San Diego,CA,92122,615000,2,2.0,University City,866,61285,1985,,710,496,Sold,,,https://www.redfin.com/CA/San-Diego/8324-Regents-Rd-92122/unit-1O/home/113418957,SDMLS,240026709,N,Y,32.866623,-117.2217409
PAST SALE,January-7-2025,Condo/Co-op,3550 Lebon Dr #6420,San Diego,CA,92122,735000,2,2.0,University City,956,275850,2006,,769,337,Sold,,,https://www.redfin.com/CA/San-Diego/3550-Lebon-Dr-92122/unit-6420/home/170583560,SDMLS,240023597,N,Y,32.8695212,-117.2254923
PAST SALE,December-27-2024,Condo/Co-op,3890 Nobel Dr #1207,San Diego,CA,92122,675000,2,2.0,University City,1153,,1991,,585,3581,Sold,,,https://www.redfin.com/CA/San-Diego/3890-Nobel-Dr-92122/unit-1207/home/4871459,SDMLS,240020605,N,Y,32.868689,-117.223012
PAST SALE,February-10-2025,Condo/Co-op,3947 Camino Lindo,San Diego,CA,92122,850000,3,2.5,92122 - University City,1380,,1978,,616,485,Sold,,,https://www.redfin.com/CA/San-Diego/3947-Camino-Lindo-92122/home/4903335,CRMLS,NDP2409296,N,Y,32.858932,-117.220353
PAST SALE,February-13-2025,Single Family Residential,4296 Benhurst Ave,San Diego,CA,92122,1600000,6,4.0,University City,2713,6500,1971,,590,,Sold,,,https://www.redfin.com/CA/San-Diego/4296-Benhurst-Ave-92122/home/4898937,SDMLS,240022945,N,Y,32.8540499,-117.1981124
PAST SALE,January-24-2025,Condo/Co-op,4435 Nobel Dr #33,San Diego,CA,92122,790000,2,2.0,University City,1005,,1985,,786,565,Sold,,,https://www.redfin.com/CA/San-Diego/4435-Nobel-Dr-92122/unit-33/home/4871984,CRMLS,OC24206169,N,Y,32.8666386,-117.211171
PAST SALE,February-26-2025,Condo/Co-op,4435 Nobel Dr #13,San Diego,CA,92122,585000,1,1.0,The Terraces (TERR),656,,1985,,892,551,Sold,,,https://www.redfin.com/CA/San-Diego/4435-Nobel-Dr-92122/unit-13/home/4871924,CRMLS,NDP2406469,N,Y,32.8666386,-117.211171
PAST SALE,,Condo/Co-op,3957 Nobel Dr #214,San Diego,CA,92122,600000,2,3.0,,1100,,1987,,545,,,,,https://www.redfin.com/CA/San-Diego/3957-Nobel-Dr-92122/unit-214/home/6649537,,,N,Y,32.867602,-117.2210018
PAST SALE,,Condo/Co-op,4165 Porte de Palmas #195,San Diego,CA,92122,931000,3,3.0,,1394,,1986,,668,,,,,https://www.redfin.com/CA/San-Diego/4165-Porte-de-Palmas-92122/unit-195/home/4888859,,,N,Y,32.859642,-117.2245119
PAST SALE,,Single Family Residential,5852 Dirac St,San Diego,CA,92122,1400000,5,4.0,,2024,11200,1964,,692,,,,,https://www.redfin.com/CA/San-Diego/5852-Dirac-St-92122/home/4891678,,,N,Y,32.8481851,-117.1988839
PAST SALE,,Condo/Co-op,3550 Lebon Dr #642,San Diego,CA,92122,735000,2,2.0,,956,,2006,,769,,,,,https://www.redfin.com/CA/San-Diego/3550-Lebon-Dr-92122/unit-642/home/6697203,,,N,Y,32.869521,-117.2253086
PAST SALE,,Condo/Co-op,8324 Regents Rd #10,San Diego,CA,92122,615000,2,2.0,,866,,1985,,710,,,,,https://www.redfin.com/CA/San-Diego/8324-Regents-Rd-92122/unit-10/home/4869582,,,N,Y,32.866623,-117.2217409
