SALE TYPE,SOLD DATE,PROPERTY TYPE,ADDRESS,CITY,STATE OR PROVINCE,ZIP OR POSTAL CODE,PRICE,BEDS,BATHS,LOCATION,SQUARE FEET,LOT SIZE,YEAR BUILT,DAYS ON MARKET,$/SQUARE FEET,HOA/MONTH,STATUS,NEXT OPEN HOUSE START TIME,NEXT OPEN HOUSE END TIME,URL (SEE https://www.redfin.com/buy-a-home/comparative-market-analysis FOR INFO ON PRICING),SOURCE,MLS#,FAVORITE,INTERESTED,LATITUDE,LONGITUDE
"In accordance with local MLS rules, some MLS listings are not included in the download"
PAST SALE,January-2-2025,Single Family Residential,1730 Thelborn Way,San Diego,CA,92154,775000,4,2.0,San Diego,1336,5100,1973,,580,,Sold,,,https://www.redfin.com/CA/San-Diego/1730-Thelborn-Way-92154/home/6178511,SDMLS,240028020,N,Y,32.5668581,-117.0963968
PAST SALE,January-22-2025,Townhouse,5481 Seacliff Pl #94,San Diego,CA,92154,690000,4,3.5,San Diego,1946,,2022,,355,230,Sold,,,https://www.redfin.com/CA/San-Diego/5481-Seacliff-Pl-92154/unit-94/home/185186969,SDMLS,240025726,N,Y,32.567449,-117.0110654
PAST SALE,February-4-2025,Vacant Land,0 Secano St,San Diego,CA,92154,240000,,,San Diego,39640,39640,,,6,,Sold,,,https://www.redfin.com/CA/San-Diego/Secano-St-92154/home/179973367,"bridgeMLS, Bay East AOR, or Contra Costa AOR",CROC25000209,N,Y,32.557342,-116.989322
PAST SALE,January-24-2025,Single Family Residential,2723 Lungos Ct,San Diego,CA,92154,640000,5,3.0,San Diego,2135,,1986,,300,,Sold,,,https://www.redfin.com/CA/San-Diego/2723-Lungos-Ct-92154/home/6153190,SDMLS,250017271,N,Y,32.5844513,-117.073487
PAST SALE,,Single Family Residential,3776 Enero Ct,San Diego,CA,92154,410000,2,2.0,,1822,6500,1969,,225,,,,,https://www.redfin.com/CA/San-Diego/3776-Enero-Ct-92154/home/6156882,,,N,Y,32.5743388,-117.0521588
PAST SALE,December-31-2024,Single Family Residential,1252 Surfwood Ln,San Diego,CA,92154,1138000,6,3.0,South Sd,2872,5219,2001,,396,51,Sold,,,https://www.redfin.com/CA/San-Diego/1252-Surfwood-Ln-92154/home/6294794,SDMLS,240028983,N,Y,32.574361,-117.0238768
PAST SALE,,Single Family Residential,715 Kedzie Ave,San Diego,CA,92154,575000,4,2.0,,1200,6300,1969,,479,,,,,https://www.redfin.com/CA/San-Diego/715-Kedzie-Ave-92154/home/6162951,,,N,Y,32.5834774,-117.0434904
PAST SALE,February-13-2025,Condo/Co-op,2659 Caminito Secoya,San Diego,CA,92154,625000,4,2.5,San Diego,1592,1720,1974,,393,280,Sold,,,https://www.redfin.com/CA/San-Diego/2659-Caminito-Secoya-92154/home/6174462,SDMLS,250000665,N,Y,32.5735293,-117.0763104
PAST SALE,December-19-2024,Single Family Residential,1010 Reef Dr,San Diego,CA,92154,735000,3,2.0,South Sd,1308,6700,1972,,562,,Sold,,,https://www.redfin.com/CA/San-Diego/1010-Reef-Dr-92154/home/6159846,SDMLS,240027132,N,Y,32.5787463,-117.065023
PAST SALE,January-28-2025,Condo/Co-op,3710 Arey Dr #4,San Diego,CA,92154,544000,3,2.0,San Diego,1071,250349,1976,,508,514,Sold,,,https://www.redfin.com/CA/San-Diego/3710-Arey-Dr-92154/unit-4/home/6448112,SDMLS,240028957,N,Y,32.579018,-117.0538694
PAST SALE,February-21-2025,Single Family Residential,4221 Darwin Way,San Diego,CA,92154,718500,3,2.0,San Diego,1140,6800,1971,,630,,Sold,,,https://www.redfin.com/CA/San-Diego/4221-Darwin-Way-92154/home/6164564,SDMLS,250001131,N,Y,32.57663,-117.0439709
PAST SALE,February-14-2025,Condo/Co-op,5240 Rockfish Ln #109,San Diego,CA,92154,600000,2,2.5,San Diego,1351,,2020,,444,462,Sold,,,https://www.redfin.com/CA/San-Diego/5240-Rockfish-Ln-92154/unit-109/home/167668804,SDMLS,250000979,N,Y,32.5712461,-117.0210448
PAST SALE,February-27-2025,Single Family Residential,968 Churrituck Dr,San Diego,CA,92154,715000,3,2.0,San Diego,1248,5000,1977,,573,,Sold,,,https://www.redfin.com/CA/San-Diego/968-Churrituck-Dr-92154/home/6160217,SDMLS,250017218,N,Y,32.5793439,-117.0583502
PAST SALE,February-26-2025,Single Family Residential,861 Desty St,San Diego,CA,92154,838000,4,2.0,92154 - Otay Mesa,1507,6726,1973,,556,,Sold,,,https://www.redfin.com/CA/San-Diego/861-Desty-St-92154/home/6149955,CRMLS,PTP2500844,N,Y,32.5813471,-117.0769537
PAST SALE,January-8-2025,Single Family Residential,1050 Piccard Ave,San Diego,CA,92154,820000,3,2.0,92154 - Otay Mesa,1460,5000,1969,,562,,Sold,,,https://www.redfin.com/CA/San-Diego/1050-Piccard-Ave-92154/home/6162367,CRMLS,PTP2407492,N,Y,32.5777366,-117.0504933
PAST SALE,March-6-2025,Single Family Residential,3450 Robb Roy Pl,San Diego,CA,92154,601500,3,2.0,San Diego,1248,5000,1977,,482,,Sold,,,https://www.redfin.com/CA/San-Diego/3450-Robb-Roy-Pl-92154/home/6448172,SDMLS,250018356,N,Y,32.581855,-117.0600313
PAST SALE,December-20-2024,Single Family Residential,5464 Vista San Simeon,San Diego,CA,92154,845000,3,2.5,San Diego,1931,5084,2003,,438,46,Sold,,,https://www.redfin.com/CA/San-Diego/5464-Vista-San-Simeon-92154/home/6459424,SDMLS,240027294,N,Y,32.5829794,-117.0129237
PAST SALE,February-3-2025,Condo/Co-op,5464 Seacliff Pl #21,San Diego,CA,92154,586000,2,2.5,San Diego,1309,,2022,,448,230,Sold,,,https://www.redfin.com/CA/San-Diego/5464-Seacliff-Pl-92154/unit-21/home/185186912,SDMLS,250000700,N,Y,32.567902,-117.011683
PAST SALE,December-10-2024,Condo/Co-op,849 Compass Way,San Diego,CA,92154,567000,2,2.0,Spinnaker Point (SPINP),1006,,2005,,564,290,Sold,,,https://www.redfin.com/CA/San-Diego/849-Compass-Way-92154/home/6654361,CRMLS,PTP2406769,N,Y,32.5815847,-117.0195514
PAST SALE,,Single Family Residential,1411 Elm Ave,San Diego,CA,92154,1035000,5,2.0,,1608,7000,1960,,644,,,,,https://www.redfin.com/CA/San-Diego/1411-Elm-Ave-92154/home/6147671,,,N,Y,32.5804938,-117.1029402
PAST SALE,December-11-2024,Condo/Co-op,1925 Avenida Del Mexico #254,San Diego,CA,92154,480000,2,2.0,92154 - Otay Mesa,885,,1987,,542,340,Sold,,,https://www.redfin.com/CA/San-Diego/1925-Avenida-del-Mexico-92154/unit-254/home/12164896,CRMLS,PTP2406614,N,Y,32.5829123,-117.0919229
PAST SALE,January-14-2025,Single Family Residential,1181 Zurich Dr,San Diego,CA,92154,844000,4,2.0,92154 - Otay Mesa,1575,6282,1979,,536,,Sold,,,https://www.redfin.com/CA/San-Diego/1181-Zurich-Dr-92154/home/6173110,CRMLS,NDP2410558,N,Y,32.5752002,-117.0899579
PAST SALE,February-25-2025,Townhouse,1698 Paseo Aurora,San Diego,CA,92154,627000,4,3.0,San Diego,1597,29285,2004,,393,220,Sold,,,https://www.redfin.com/CA/San-Diego/1698-Paseo-Aurora-92154/home/6614142,SDMLS,240029046,N,Y,32.5703912,-117.0373368
PAST SALE,March-7-2025,Single Family Residential,1844 Katella,San Diego,CA,92154,755000,5,3.0,San Diego,1976,,1977,,382,,Sold,,,https://www.redfin.com/CA/San-Diego/1844-Katella-St-92154/home/6180168,SDMLS,250018288,N,Y,32.5625421,-117.0805388
PAST SALE,December-16-2024,Condo/Co-op,5230 Calle Rockfish #101,San Diego,CA,92154,699000,4,3.5,South Sd,1987,1178775,2018,,352,462,Sold,,,https://www.redfin.com/CA/San-Diego/5230-Calle-Rockfish-92154/unit-101/home/144891840,SDMLS,240026146,N,Y,32.5711406,-117.0214728
PAST SALE,January-17-2025,Condo/Co-op,4464 Avenida Aquila,San Diego,CA,92154,605000,3,2.0,South Sd,1193,,2004,,507,230,Sold,,,https://www.redfin.com/CA/San-Diego/4464-Avenida-Aquila-92154/home/7498180,SDMLS,240028322,N,Y,32.5714241,-117.0377777
PAST SALE,January-16-2025,Townhouse,6349 Avenida de las Vistas #1,San Diego,CA,92154,593000,2,2.0,92154 - Otay Mesa,1141,,2003,,520,199,Sold,,,https://www.redfin.com/CA/San-Diego/6349-Avenida-de-las-Vistas-92154/unit-1/home/6519213,CRMLS,PTP2407491,N,Y,32.579378,-117.0027207
PAST SALE,February-21-2025,Single Family Residential,3461 Robb Roy Pl,San Diego,CA,92154,815000,5,2.5,San Diego,1756,5300,1977,,464,,Sold,,,https://www.redfin.com/CA/San-Diego/3461-Robb-Roy-Pl-92154/home/6160357,SDMLS,250017724,N,Y,32.5814495,-117.0596635
PAST SALE,February-28-2025,Single Family Residential,2840 Donax,San Diego,CA,92154,685000,4,3.0,San Diego,1780,,1970,,385,,Sold,,,https://www.redfin.com/CA/San-Diego/2840-Donax-Ave-92154/home/6155879,SDMLS,250018511,N,Y,32.5815026,-117.0729529
PAST SALE,January-30-2025,Single Family Residential,5162 Seaglen Way,San Diego,CA,92154,925000,4,3.0,92154 - Otay Mesa,2130,8553,2004,,434,55,Sold,,,https://www.redfin.com/CA/San-Diego/5162-Seaglen-Way-92154/home/6552182,CRMLS,PTP2500222,N,Y,32.5758566,-117.0205824
PAST SALE,December-27-2024,Single Family Residential,4773 Sea Coral Dr,San Diego,CA,92154,1125000,6,4.0,92154 - Otay Mesa,3391,5512,2004,,332,52,Sold,,,https://www.redfin.com/CA/San-Diego/4773-Sea-Coral-Dr-92154/home/6323094,CRMLS,PTP2407149,N,Y,32.5745252,-117.0298706
PAST SALE,January-2-2025,Single Family Residential,4740 Heathbrook Ct,San Diego,CA,92154,1005000,4,3.0,San Diego,1958,4641,2000,,513,52,Sold,,,https://www.redfin.com/CA/San-Diego/4740-Heathbrook-Ct-92154/home/6221252,SDMLS,240027026,N,Y,32.5813707,-117.0310028
PAST SALE,December-23-2024,Single Family Residential,733 Manning Way,San Diego,CA,92154,835000,5,4.0,92154 - Otay Mesa,2608,13443,1969,,320,,Sold,,,https://www.redfin.com/CA/San-Diego/733-Manning-Way-92154/home/6149465,CRMLS,PTP2407446,N,Y,32.5832493,-117.0809908
PAST SALE,February-13-2025,Single Family Residential,919 ARRECIFE Ct,San Diego,CA,92154,780000,3,2.0,South Sd,1175,6400,1973,,664,,Sold,,,https://www.redfin.com/CA/San-Diego/919-Arrecife-Ct-92154/home/6165954,SDMLS,250001355,N,Y,32.5792856,-117.0410378
PAST SALE,December-11-2024,Single Family Residential,2859 Barbour Dr,San Diego,CA,92154,700000,4,2.0,92154 - Otay Mesa,1196,6800,1967,,585,,Sold,,,https://www.redfin.com/CA/San-Diego/2859-Barbour-Dr-92154/home/6153995,CRMLS,PTP2406779,N,Y,32.5804138,-117.0723115
PAST SALE,January-21-2025,Condo/Co-op,1704 San Lucius,San Diego,CA,92154,665000,3,2.5,92154 - Otay Mesa,1410,135470,2021,,472,365,Sold,,,https://www.redfin.com/CA/San-Diego/1704-San-Lucius-92154/home/174461945,CRMLS,SW24242074,N,Y,32.5640301,-117.0123696
PAST SALE,February-19-2025,Condo/Co-op,812 Compass Way,San Diego,CA,92154,620000,2,2.0,San Diego,1643,16127,2005,,377,246,Sold,,,https://www.redfin.com/CA/San-Diego/812-Compass-Way-92154/home/6654446,SDMLS,250000676,N,Y,32.5822881,-117.0198248
PAST SALE,December-26-2024,Condo/Co-op,5429 Santa Regina,San Diego,CA,92154,710000,4,3.5,San Diego,1829,,2015,,388,365,Sold,,,https://www.redfin.com/CA/San-Diego/5429-Santa-Regina-92154/home/112890300,SDMLS,SDC0000958,N,Y,32.563289,-117.014813
PAST SALE,December-27-2024,Condo/Co-op,1250 Calle Seabass #30,San Diego,CA,92154,660000,3,3.5,92154 - Otay Mesa,1626,,2017,,406,463,Sold,,,https://www.redfin.com/CA/San-Diego/1250-Calle-Seabass-92154/unit-30/home/144891699,CRMLS,PTP2406880,N,Y,32.5730016,-117.0230644
PAST SALE,February-10-2025,Mobile/Manufactured Home,1023 Outer Rd #24,San Diego,CA,92154,57500,2,1.0,San Diego,586,,1962,,98,1240,Sold,,,https://www.redfin.com/CA/San-Diego/1023-Outer-Rd-92154/unit-24/home/194345797,SDMLS,250001497,N,Y,32.5781904,-117.0818443
PAST SALE,January-24-2025,Single Family Residential,1249 Sandy Cape Ct,San Diego,CA,92154,842000,3,2.5,South Sd,1677,4629,2004,,502,55,Sold,,,https://www.redfin.com/CA/San-Diego/1249-Sandy-Cape-Ct-92154/home/6571750,CRMLS,SW24253469,N,Y,32.5732721,-117.0171023
PAST SALE,February-24-2025,Single Family Residential,1208 RIVIERA POINT St,San Diego,CA,92154,1075000,6,3.0,92154 - Otay Mesa,3092,6676,2003,,348,120,Sold,,,https://www.redfin.com/CA/San-Diego/1208-Riviera-Point-St-92154/home/6572225,CRMLS,PTP2500313,N,Y,32.5700279,-117.0341007
PAST SALE,January-27-2025,Single Family Residential,825 Narwhal St,San Diego,CA,92154,790000,3,2.0,92154 - Otay Mesa,1120,5000,1970,,705,,Sold,,,https://www.redfin.com/CA/San-Diego/825-Narwhal-St-92154/home/6155081,CRMLS,PTP2407728,N,Y,32.581709,-117.0543808
PAST SALE,December-16-2024,Single Family Residential,2569 Caulfield Dr,San Diego,CA,92154,571500,4,2.0,South Sd,1154,,1969,,495,,Sold,,,https://www.redfin.com/CA/San-Diego/2569-Caulfield-Dr-92154/home/6149667,SDMLS,240027142,N,Y,32.5784943,-117.0781716
PAST SALE,February-14-2025,Mobile/Manufactured Home,2626 Coronado Ave #101,San Diego,CA,92154,290000,3,2.0,SSD,1248,2200,1995,,232,,Sold,,,https://www.redfin.com/CA/San-Diego/2626-Coronado-Ave-92154/unit-101/home/17209114,CRMLS,PTP2407527,N,Y,32.5770715,-117.0772917
PAST SALE,December-27-2024,Single Family Residential,2606 Gould Ln,San Diego,CA,92154,760000,3,2.0,San Diego,1338,6631,1980,,568,,Sold,,,https://www.redfin.com/CA/San-Diego/2606-Gould-Ln-92154/home/6150283,SDMLS,240026931,N,Y,32.5836381,-117.0769833
PAST SALE,December-31-2024,Condo/Co-op,5301 Calle Rockfish #102,San Diego,CA,92154,660000,3,2.5,San Diego,1595,,2018,,414,462,Sold,,,https://www.redfin.com/CA/San-Diego/5301-Calle-Rockfish-92154/unit-102/home/167668821,SDMLS,240026727,N,Y,32.5706351,-117.0206054
PAST SALE,January-24-2025,Townhouse,1780 Saltaire Pl #11,San Diego,CA,92154,629750,3,2.5,San Diego,1625,126450,2015,,388,224,Sold,,,https://www.redfin.com/CA/San-Diego/1780-Saltaire-Pl-92154/unit-11/home/95963387,SDMLS,240028080,N,Y,32.5625002,-117.0259201
PAST SALE,February-28-2025,Townhouse,5350 Seacliff Pl #53,San Diego,CA,92154,585580,2,2.5,San Diego,1321,,2025,,443,382,Sold,,,https://www.redfin.com/CA/San-Diego/5350-Seacliff-Pl-92154/unit-53/home/192769579,SDMLS,240027128,N,Y,32.5678449,-117.0131837
PAST SALE,January-13-2025,Single Family Residential,1354 Kostner Dr,San Diego,CA,92154,713000,3,2.0,92154 - Otay Mesa,1460,6000,1971,,488,,Sold,,,https://www.redfin.com/CA/San-Diego/1354-Kostner-Dr-92154/home/6164383,CRMLS,PTP2406883,N,Y,32.572334,-117.0438628
PAST SALE,January-3-2025,Condo/Co-op,5476 San Alejandro,San Diego,CA,92154,665500,3,2.5,South Sd,1485,,2020,,448,360,Sold,,,https://www.redfin.com/CA/San-Diego/5476-San-Alejandro-92154/home/174461955,SDMLS,240027243,N,Y,32.564418,-117.013175
PAST SALE,December-19-2024,Single Family Residential,1213 27Th St,San Diego,CA,92154,654000,3,2.0,92154 - Otay Mesa,1178,306577,1979,,555,195,Sold,,,https://www.redfin.com/CA/San-Diego/1213-27th-St-92154/home/6154368,CRMLS,PTP2406847,N,Y,32.573501,-117.075248
PAST SALE,,Condo/Co-op,1270 Paseo Sea Breeze #27,San Diego,CA,92154,650000,3,3.0,,1442,,2017,,451,,,,,https://www.redfin.com/CA/San-Diego/1270-Paseo-Sea-Breeze-92154/unit-27/home/144891727,,,N,Y,32.5724778,-117.0223133
PAST SALE,January-7-2025,Condo/Co-op,5407 Sand Arch Ln #210,San Diego,CA,92154,590000,2,2.5,92154 - Otay Mesa,1310,,2020,,450,462,Sold,,,https://www.redfin.com/CA/San-Diego/5407-Sand-Arch-Ln-92154/unit-210/home/172051250,CRMLS,PTP2407412,N,Y,32.572481,-117.019957
PAST SALE,December-10-2024,Condo/Co-op,1911 Bluehaven Ct,San Diego,CA,92154,548000,2,2.0,92154 - Otay Mesa,1034,,1985,,530,169,Sold,,,https://www.redfin.com/CA/San-Diego/1911-Bluehaven-Ct-92154/home/6183793,CRMLS,PTP2406783,N,Y,32.5591582,-117.0658789
PAST SALE,January-28-2025,Single Family Residential,2194 Imogene Ave,San Diego,CA,92154,800000,3,2.0,92154 - Otay Mesa,1259,6500,1959,,635,,Sold,,,https://www.redfin.com/CA/San-Diego/2194-Imogene-Ave-92154/home/6174942,CRMLS,PTP2407749,N,Y,32.5722568,-117.0863521
PAST SALE,December-16-2024,Condo/Co-op,5360 Calle Rockfish #31,San Diego,CA,92154,700000,3,2.5,92154 - Otay Mesa,2014,,2019,,348,463,Sold,,,https://www.redfin.com/CA/San-Diego/5360-Calle-Rockfish-92154/unit-31/home/167668923,CRMLS,PTP2407141,N,Y,32.5715843,-117.0196857
PAST SALE,January-3-2025,Single Family Residential,4914 Surfcliff,San Diego,CA,92154,1045000,5,3.0,South Sd,2685,6665,2000,,389,52,Sold,,,https://www.redfin.com/CA/San-Diego/4914-Surfcliff-Pt-92154/home/6322011,CRMLS,PW24237405,N,Y,32.5741397,-117.0268822
PAST SALE,February-14-2025,Mobile/Manufactured Home,2626 Coronado Ave #4,San Diego,CA,92154,242260,2,2.0,Helena Mobile Home Park,940,2500,2003,,258,,Sold,,,https://www.redfin.com/CA/San-Diego/2626-Coronado-Ave-92154/unit-4/home/17209019,CRMLS,PTP2407148,N,Y,32.5770715,-117.0772917
PAST SALE,January-8-2025,Single Family Residential,5904 Vista San Isidro,San Diego,CA,92154,882000,4,2.5,San Diego,2166,5863,2002,,407,55,Sold,,,https://www.redfin.com/CA/San-Diego/5904-Vista-San-Isidro-92154/home/6459105,SDMLS,240027414,N,Y,32.5800059,-117.0083048
PAST SALE,January-31-2025,Single Family Residential,1588 Hawken Dr,San Diego,CA,92154,885000,5,3.0,South Sd,2021,4277,2003,,438,105,Sold,,,https://www.redfin.com/CA/San-Diego/1588-Hawken-Dr-92154/home/6589285,SDMLS,240028628,N,Y,32.5649442,-117.033174
PAST SALE,January-10-2025,Single Family Residential,3966 Daves Way,San Diego,CA,92154,757000,3,2.0,92154 - Otay Mesa,1331,5100,1968,,569,,Sold,,,https://www.redfin.com/CA/San-Diego/3966-Daves-Way-92154/home/6161672,CRMLS,NDP2410058,N,Y,32.5803867,-117.048889
PAST SALE,December-10-2024,Single Family Residential,506 Gatty Ct,San Diego,CA,92154,870000,4,3.0,92154 - Otay Mesa,2228,14700,1970,,390,,Sold,,,https://www.redfin.com/CA/San-Diego/506-Gatty-Ct-92154/home/6151725,CRMLS,PTP2406189,N,Y,32.5865082,-117.0512376
PAST SALE,January-14-2025,Single Family Residential,3955 Glading Dr,San Diego,CA,92154,744000,4,2.0,Chula Vista,1145,5000,1968,,650,,Sold,,,https://www.redfin.com/CA/San-Diego/3955-Glading-Dr-92154/home/6161605,SDMLS,240027079,N,Y,32.5813794,-117.0492127
PAST SALE,February-4-2025,Vacant Land,0-LOT 46 Secano St,San Diego,CA,92154,240000,,,South Sd,,39640,,,,,Sold,,,https://www.redfin.com/CA/San-Diego/0-LOT-46-Secano-St-92154/home/194107880,CRMLS,OC25000209,N,Y,32.558957,-116.994454
PAST SALE,December-12-2024,Condo/Co-op,1702 Paseo Aurora,San Diego,CA,92154,628000,4,3.0,San Diego,1597,,2004,,393,220,Sold,,,https://www.redfin.com/CA/San-Diego/1702-Paseo-Aurora-92154/home/22788698,SDMLS,240024193,N,Y,32.5704025,-117.0373583
PAST SALE,December-19-2024,Mobile/Manufactured Home,2888 Iris Ave #104,San Diego,CA,92154,200000,2,2.0,Greenfield Mobile Club,880,2000,1970,,227,,Sold,,,https://www.redfin.com/CA/San-Diego/2888-Iris-Ave-92154/unit-104/home/192939888,CRMLS,PTP2406121,N,Y,32.5710189,-117.0720265
PAST SALE,February-5-2025,Single Family Residential,5583 Vista San Simeon,San Diego,CA,92154,975000,4,2.5,92154 - Otay Mesa,2328,6536,2004,,419,17,Sold,,,https://www.redfin.com/CA/San-Diego/5583-Vista-San-Simeon-92154/home/6459476,CRMLS,PTP2407352,N,Y,32.5813964,-117.0129272
PAST SALE,January-9-2025,Townhouse,718 Portside Pl,San Diego,CA,92154,562000,2,2.0,92154 - Otay Mesa,1006,,2005,,559,285,Sold,,,https://www.redfin.com/CA/San-Diego/718-Portside-Pl-92154/home/6654510,CRMLS,PTP2406695,N,Y,32.5834363,-117.0197424
PAST SALE,March-6-2025,Condo/Co-op,3206 Caminito Quixote,San Diego,CA,92154,415000,2,1.5,South Sd,966,,1974,,430,324,Sold,,,https://www.redfin.com/CA/San-Diego/3206-Caminito-Quixote-92154/home/6158556,SDMLS,240027814,N,Y,32.5778629,-117.0607974
PAST SALE,February-3-2025,Single Family Residential,989 Madden Ave,San Diego,CA,92154,633000,3,2.0,South Sd,1152,6600,1968,,549,,Sold,,,https://www.redfin.com/CA/San-Diego/989-Madden-Ave-92154/home/6153909,SDMLS,240028414,N,Y,32.5796553,-117.0709459
PAST SALE,January-13-2025,Condo/Co-op,5204 Surfwalk Way #159,San Diego,CA,92154,670000,4,2.5,92154 - Otay Mesa,1696,,2021,,395,451,Sold,,,https://www.redfin.com/CA/San-Diego/5204-Surfwalk-Way-92154/unit-159/home/177988842,CRMLS,NDP2410135,N,Y,32.569383,-117.0194802
PAST SALE,January-29-2025,Single Family Residential,1431 Green Bay St,San Diego,CA,92154,799999,3,2.0,San Diego,1204,7000,1958,,664,,Sold,,,https://www.redfin.com/CA/San-Diego/1431-Green-Bay-St-92154/home/6174519,SDMLS,240024198,N,Y,32.5704271,-117.088196
PAST SALE,January-29-2025,Condo/Co-op,1310 Cassiopeia Ln,San Diego,CA,92154,592000,3,2.0,92154 - Otay Mesa,1153,38589,2004,,513,230,Sold,,,https://www.redfin.com/CA/San-Diego/1310-Cassiopeia-Ln-92154/home/6614045,CRMLS,NDP2409904,N,Y,32.5731834,-117.0372388
PAST SALE,December-17-2024,Single Family Residential,5162 Topside Ln,San Diego,CA,92154,1041650,4,3.0,South Sd,2432,5418,2004,,428,52,Sold,,,https://www.redfin.com/CA/San-Diego/5162-Topside-Ln-92154/home/6572456,CRMLS,IV24213647,N,Y,32.589604,-117.0197783
PAST SALE,January-28-2025,Condo/Co-op,5405 Calle Sand Arch #184,San Diego,CA,92154,675000,4,2.5,92154 - Otay Mesa,1696,,2020,,398,464,Sold,,,https://www.redfin.com/CA/San-Diego/5405-Calle-Sand-Arch-92154/unit-184/home/172051263,CRMLS,PTP2407001,N,Y,32.5727507,-117.0202145
PAST SALE,January-29-2025,Condo/Co-op,5405 Beach Grass Ln #138,San Diego,CA,92154,585000,2,2.0,San Diego,1301,,2019,,450,462,Sold,,,https://www.redfin.com/CA/San-Diego/5405-Beach-Grass-Ln-92154/unit-138/home/167668987,SDMLS,240026954,N,Y,32.5721498,-117.0203348
PAST SALE,January-10-2025,Condo/Co-op,3454 Del Sol Blvd Unit J,San Diego,CA,92154,415000,2,1.0,South Sd,800,259897,1974,,519,376,Sold,,,https://www.redfin.com/CA/San-Diego/3454-Del-Sol-Blvd-92154/unit-J/home/6157677,CRMLS,FR24206776,N,Y,32.5737817,-117.0594303
PAST SALE,January-10-2025,Townhouse,635 13Th St #36,San Diego,CA,92154,560000,2,2.5,San Diego,1219,86678,1982,,459,400,Sold,,,https://www.redfin.com/CA/San-Diego/635-13th-St-92154/unit-36/home/17192149,SDMLS,240024599,N,Y,32.5851162,-117.1051395
PAST SALE,January-31-2025,Condo/Co-op,645 13th St #10,San Diego,CA,92154,561200,2,2.5,92154 - Otay Mesa,1219,,1980,,460,250,Sold,,,https://www.redfin.com/CA/San-Diego/645-13th-St-92154/unit-10/home/6115719,CRMLS,PTP2407178,N,Y,32.5850787,-117.1052302
PAST SALE,February-5-2025,Single Family Residential,922 Orchid Way,San Diego,CA,92154,770000,3,2.0,92154 - Otay Mesa,1258,5100,1972,,612,,Sold,,,https://www.redfin.com/CA/San-Diego/922-Orchid-Way-92154/home/6159707,CRMLS,PTP2407062,N,Y,32.5798119,-117.0657768
PAST SALE,December-16-2024,Single Family Residential,6287 Vista Santa Clara,San Diego,CA,92154,825000,3,2.5,92154 - Otay Mesa,1813,4428,2003,,455,15,Sold,,,https://www.redfin.com/CA/San-Diego/6287-Vista-Santa-Clara-92154/home/6492415,CRMLS,PTP2406214,N,Y,32.5804057,-117.0035683
PAST SALE,February-28-2025,Single Family Residential,5160 Emerald Cv,San Diego,CA,92154,899000,3,2.5,San Diego,1923,6973,2005,,467,90,Sold,,,https://www.redfin.com/CA/San-Diego/5160-Emerald-Cv-92154/home/7497041,SDMLS,240026920,N,Y,32.578829,-117.0219608
PAST SALE,February-11-2025,Single Family Residential,730 Kostner Dr,San Diego,CA,92154,810000,3,2.0,San Diego,1650,7800,1973,,491,,Sold,,,https://www.redfin.com/CA/San-Diego/730-Kostner-Dr-92154/home/6163011,SDMLS,240021353,N,Y,32.5833668,-117.0421079
PAST SALE,January-7-2025,Single Family Residential,2510 Biola Ave,San Diego,CA,92154,818000,4,2.5,92154 - Otay Mesa,1687,7989,1977,,485,,Sold,,,https://www.redfin.com/CA/San-Diego/2510-Biola-Ave-92154/home/6180014,CRMLS,PTP2406450,N,Y,32.5640922,-117.0809899
PAST SALE,February-27-2025,Single Family Residential,4723 Camberley Ct,San Diego,CA,92154,960000,5,3.0,South Sd,2272,6064,2001,,423,52,Sold,,,https://www.redfin.com/CA/San-Diego/4723-Camberley-Ct-92154/home/6452898,SDMLS,240026877,N,Y,32.5823603,-117.0315083
PAST SALE,February-11-2025,Single Family Residential,2150 Hofer,San Diego,CA,92154,695000,3,2.0,92154 - Otay Mesa,1400,5510,1984,,496,,Sold,,,https://www.redfin.com/CA/San-Diego/2150-Hofer-Dr-92154/home/6173881,CRMLS,PTP2407109,N,Y,32.5752584,-117.0871148
PAST SALE,January-30-2025,Condo/Co-op,5340 Seacliff Pl #36,San Diego,CA,92154,694997,4,3.5,San Diego,1875,,2024,,371,382,Sold,,,https://www.redfin.com/CA/San-Diego/5340-Seacliff-Pl-92154/unit-36/home/192769562,SDMLS,240023213,N,Y,32.567899,-117.0134022
PAST SALE,December-19-2024,Single Family Residential,1560 Jason St,San Diego,CA,92154,745000,3,1.5,92154 - Otay Mesa,1080,5000,1964,,690,,Sold,,,https://www.redfin.com/CA/San-Diego/1560-Jason-St-92154/home/6172889,CRMLS,PTP2405660,N,Y,32.5697948,-117.1000098
PAST SALE,December-20-2024,Townhouse,1596 San Miguelito,San Diego,CA,92154,680000,3,2.5,San Diego,1600,,2019,,425,365,Sold,,,https://www.redfin.com/CA/San-Diego/1596-San-Miguelito-92154/home/167669232,SDMLS,240017719,N,Y,32.5648306,-117.0137676
PAST SALE,February-26-2025,Single Family Residential,1206 AQUA PARK St,San Diego,CA,92154,740000,3,2.0,92154 - Otay Mesa,1140,5800,1970,,649,,Sold,,,https://www.redfin.com/CA/San-Diego/1206-Aqua-Park-St-92154/home/6156957,CRMLS,PTP2406904,N,Y,32.5747968,-117.053517
PAST SALE,December-31-2024,Townhouse,5340 Calle Rockfish #19,San Diego,CA,92154,657500,3,2.5,South Sd,1591,,2019,,413,461,Sold,,,https://www.redfin.com/CA/San-Diego/5340-Calle-Rockfish-92154/unit-19/home/167668907,SDMLS,240021334,N,Y,32.5715874,-117.0200027
PAST SALE,February-18-2025,Condo/Co-op,5165 Calle Sandwaves #11,San Diego,CA,92154,685000,4,3.0,San Diego,1851,1178775,2017,,370,698,Sold,,,https://www.redfin.com/CA/San-Diego/5165-Calle-Sandwaves-92154/unit-11/home/144891762,SDMLS,240019331,N,Y,32.5724371,-117.0214709
PAST SALE,January-16-2025,Single Family Residential,4135 Debbyann Pl,San Diego,CA,92154,795000,4,2.0,92154 - Otay Mesa,1735,5000,1969,,458,,Sold,,,https://www.redfin.com/CA/San-Diego/4135-Debbyann-Pl-92154/home/6162851,CRMLS,PTP2404483,N,Y,32.579173,-117.0445558
PAST SALE,February-11-2025,Condo/Co-op,1925 Avenida Del Mexico #153,San Diego,CA,92154,442000,2,2.0,San Diego,885,,1987,,499,287,Sold,,,https://www.redfin.com/CA/San-Diego/1925-Avenida-del-Mexico-92154/unit-153/home/12159579,SDMLS,240005820,N,Y,32.5829123,-117.0919229
PAST SALE,December-10-2024,Single Family Residential,1841 International Rd,San Diego,CA,92154,780000,4,2.0,92154 - Otay Mesa,1592,5541,1984,,490,,Sold,,,https://www.redfin.com/CA/San-Diego/1841-International-Rd-92154/home/6183019,CRMLS,PTP2404364,N,Y,32.5631619,-117.0751396
PAST SALE,January-8-2025,Single Family Residential,1029 Sea Glass Way,San Diego,CA,92154,960000,4,3.0,Imperial Beach,2374,,2018,,404,103,Sold,,,https://www.redfin.com/CA/San-Diego/1029-Sea-Glass-Way-92154/home/143236329,SDMLS,240016263,N,Y,32.577917,-117.0953752
PAST SALE,,Single Family Residential,832 17th St,San Diego,CA,92101,650000,2,1.0,,916,8503,1940,,710,,,,,https://www.redfin.com/CA/San-Diego/832-17th-St-92101/home/6147981,,,N,Y,32.581224,-117.097258
PAST SALE,,Parking,8733 Avenida Costa Sur,San Diego,CA,92154,2550000,,,,,43996,2000,,,,,,,https://www.redfin.com/CA/San-Diego/8733-Avenida-Costa-Sur-92154/home/162672396,,,N,Y,32.5547275,-116.9555882
PAST SALE,,Single Family Residential,3350 Clavelita St,San Diego,CA,92154,440000,4,3.0,,1664,9700,1976,,264,,,,,https://www.redfin.com/CA/San-Diego/3350-Clavelita-St-92154/home/6159922,,,N,Y,32.5713428,-117.0620316
PAST SALE,,Single Family Residential,2270 Palm Ave,San Diego,CA,92154,500000,1,1.0,,915,7192,2014,,546,,,,,https://www.redfin.com/CA/San-Diego/2270-Palm-Ave-92154/home/6148996,,,N,Y,32.5840652,-117.0851286
PAST SALE,,Single Family Residential,2636 Holderness Ln,San Diego,CA,92154,600000,3,2.0,,1338,6050,1979,,448,,,,,https://www.redfin.com/CA/San-Diego/2636-Holderness-Ln-92154/home/6150199,,,N,Y,32.5821657,-117.0762694
PAST SALE,,Single Family Residential,1686 Rodear Rd,San Diego,CA,92154,560000,3,2.0,,1111,4996,1984,,504,,,,,https://www.redfin.com/CA/San-Diego/1686-Rodear-Rd-92154/home/6177434,,,N,Y,32.5637846,-117.0882925
PAST SALE,,Single Family Residential,1086 Amacayo Ct,San Diego,CA,92154,592000,3,2.0,,1156,6874,1976,,512,,,,,https://www.redfin.com/CA/San-Diego/1086-Amacayo-Ct-92154/home/6148450,,,N,Y,32.5768015,-117.0980712
PAST SALE,,Single Family Residential,1255 Del Sol Ln,San Diego,CA,92154,600000,5,3.0,,1842,6200,1969,,326,,,,,https://www.redfin.com/CA/San-Diego/1255-Del-Sol-Ln-92154/home/6155413,,,N,Y,32.5732406,-117.0608216
PAST SALE,,Condo/Co-op,2345 Acara Cir,San Diego,CA,92154,630000,,,,,,,,,,,,,https://www.redfin.com/CA/San-Diego/2345-Acara-Cir-92154/home/192769689,,,N,Y,32.557343,-116.990652
PAST SALE,,Single Family Residential,2155 Ilex Ave,San Diego,CA,92154,650000,3,2.0,,1516,6000,1958,,429,,,,,https://www.redfin.com/CA/San-Diego/2155-Ilex-Ave-92154/home/6174592,,,N,Y,32.5697597,-117.0869276
